$GPGGA,113006.00,5215.09151,N,00005.54866,W,1,11,0.85,59.4,M,45.8,M,,*74
$GPGGA,113011.00,5215.09171,N,00005.55175,W,1,11,0.91,69.0,M,45.8,M,,*78
$GPGGA,113016.00,5215.09866,N,00005.56108,W,1,11,0.85,99.6,M,45.8,M,,*75
$GPGGA,113021.00,5215.10445,N,00005.54857,W,1,11,0.85,123.7,M,45.8,M,,*44
$GPGGA,113026.00,5215.11314,N,00005.55511,W,1,11,0.85,155.9,M,45.8,M,,*40
$GPGGA,113031.00,5215.12204,N,00005.55444,W,1,11,0.85,186.0,M,45.8,M,,*43
$GPGGA,113036.00,5215.13165,N,00005.55174,W,1,11,0.85,223.4,M,45.8,M,,*4F
$GPGGA,113041.00,5215.14468,N,00005.56176,W,1,11,1.01,262.2,M,45.8,M,,*4F
$GPGGA,113046.00,5215.14541,N,00005.55063,W,1,11,0.85,302.7,M,45.8,M,,*4B
$GPGGA,113051.00,5215.15491,N,00005.56456,W,1,11,0.85,343.7,M,45.8,M,,*44
$GPGGA,113056.00,5215.15318,N,00005.57055,W,1,11,0.85,374.3,M,45.8,M,,*43
$GPGGA,113101.00,5215.15284,N,00005.57628,W,1,11,0.85,407.6,M,45.8,M,,*4E
$GPGGA,113106.00,5215.15247,N,00005.58193,W,1,11,0.85,433.6,M,45.8,M,,*49
$GPGGA,113111.00,5215.15645,N,00005.57139,W,1,11,0.91,462.5,M,45.8,M,,*44
$GPGGA,113116.00,5215.16807,N,00005.57694,W,1,11,0.85,492.6,M,45.8,M,,*41
$GPGGA,113121.00,5215.17959,N,00005.56735,W,1,11,0.85,521.4,M,45.8,M,,*4E
$GPGGA,113126.00,5215.19111,N,00005.55191,W,1,11,0.86,550.3,M,45.8,M,,*4A
$GPGGA,113131.00,5215.20538,N,00005.55299,W,1,11,0.86,580.7,M,45.8,M,,*4B
$GPGGA,113136.00,5215.21730,N,00005.53637,W,1,11,0.86,606.4,M,45.8,M,,*4F
$GPGGA,113141.00,5215.22498,N,00005.54376,W,1,11,0.86,634.4,M,45.8,M,,*4B
$GPGGA,113146.00,5215.23635,N,00005.52092,W,1,11,0.86,659.7,M,45.8,M,,*4F
$GPGGA,113151.00,5215.24927,N,00005.50583,W,1,11,0.86,691.3,M,45.8,M,,*45
$GPGGA,113156.00,5215.26659,N,00005.51047,W,1,11,0.86,712.0,M,45.8,M,,*43
$GPGGA,113201.00,5215.28233,N,00005.50321,W,1,11,0.91,745.9,M,45.8,M,,*4B
$GPGGA,113206.00,5215.28516,N,00005.49239,W,1,11,0.86,773.4,M,45.8,M,,*42
$GPGGA,113211.00,5215.29678,N,00005.49712,W,1,11,0.86,801.1,M,45.8,M,,*4D
$GPGGA,113216.00,5215.31236,N,00005.48536,W,1,11,0.86,829.8,M,45.8,M,,*4B
$GPGGA,113221.00,5215.31403,N,00005.47418,W,1,11,0.86,855.2,M,45.8,M,,*4C
$GPGGA,113226.00,5215.31962,N,00005.46856,W,1,11,0.86,879.0,M,45.8,M,,*4A
$GPGGA,113231.00,5215.32596,N,00005.46584,W,1,11,0.86,906.6,M,45.8,M,,*45
$GPGGA,113236.00,5215.33280,N,00005.44650,W,1,11,0.86,929.6,M,45.8,M,,*46
$GPGGA,113241.00,5215.33886,N,00005.42538,W,1,11,0.91,952.3,M,45.8,M,,*4E
$GPGGA,113246.00,5215.34269,N,00005.41021,W,1,11,0.86,977.1,M,45.8,M,,*48
$GPGGA,113251.00,5215.35670,N,00005.40333,W,1,11,0.86,1005.4,M,45.8,M,,*7A
$GPGGA,113256.00,5215.37434,N,00005.39088,W,1,11,0.86,1030.0,M,45.8,M,,*72
$GPGGA,113301.00,5215.38097,N,00005.39426,W,1,11,0.86,1053.3,M,45.8,M,,*75
$GPGGA,113306.00,5215.38815,N,00005.37725,W,1,11,0.86,1080.9,M,45.8,M,,*7A
$GPGGA,113311.00,5215.40568,N,00005.37646,W,1,11,0.86,1102.8,M,45.8,M,,*7A
$GPGGA,113316.00,5215.41784,N,00005.37917,W,1,11,0.86,1127.3,M,45.8,M,,*7B
$GPGGA,113321.00,5215.42431,N,00005.36688,W,1,11,0.86,1155.3,M,45.8,M,,*7C
$GPGGA,113326.00,5215.44558,N,00005.35294,W,1,11,0.86,1178.6,M,45.8,M,,*73
$GPGGA,113331.00,5215.46412,N,00005.33104,W,1,11,0.86,1202.2,M,45.8,M,,*7E
$GPGGA,113336.00,5215.47575,N,00005.30612,W,1,11,0.86,1223.6,M,45.8,M,,*7C
$GPGGA,113341.00,5215.48203,N,00005.28531,W,1,11,0.86,1245.4,M,45.8,M,,*7C
$GPGGA,113346.00,5215.49366,N,00005.26347,W,1,11,0.86,1271.7,M,45.8,M,,*75
$GPGGA,113351.00,5215.51127,N,00005.26372,W,1,11,0.86,1296.4,M,45.8,M,,*71
$GPGGA,113356.00,5215.53220,N,00005.24496,W,1,11,0.86,1318.4,M,45.8,M,,*78
$GPGGA,113401.00,5215.55176,N,00005.22846,W,1,11,0.86,1342.3,M,45.8,M,,*74
$GPGGA,113406.00,5215.57233,N,00005.20749,W,1,11,0.86,1365.9,M,45.8,M,,*7E
$GPGGA,113411.00,5215.58372,N,00005.20439,W,1,11,0.86,1393.3,M,45.8,M,,*74
$GPGGA,113416.00,5215.59831,N,00005.18138,W,1,11,0.86,1422.1,M,45.8,M,,*7E
$GPGGA,113421.00,5215.60311,N,00005.16523,W,1,11,0.86,1451.2,M,45.8,M,,*7E
$GPGGA,113426.00,5215.62445,N,00005.14181,W,1,11,0.87,1474.0,M,45.8,M,,*77
$GPGGA,113431.00,5215.63588,N,00005.13057,W,1,11,0.99,1504.1,M,45.8,M,,*75
$GPGGA,113436.00,5215.65207,N,00005.11605,W,1,10,0.92,1532.5,M,45.8,M,,*7C
$GPGGA,113441.00,5215.66000,N,00005.11606,W,1,11,0.87,1553.7,M,45.8,M,,*79
$GPGGA,113446.00,5215.66783,N,00005.11513,W,1,11,0.91,1577.8,M,45.8,M,,*7B
$GPGGA,113451.00,5215.67878,N,00005.09110,W,1,11,0.90,1601.5,M,45.8,M,,*77
$GPGGA,113456.00,5215.69567,N,00005.08290,W,1,11,0.90,1628.9,M,45.8,M,,*70
$GPGGA,113501.00,5215.69832,N,00005.07409,W,1,11,0.91,1650.8,M,45.8,M,,*78
$GPGGA,113506.00,5215.71082,N,00005.06935,W,1,11,0.91,1678.0,M,45.8,M,,*74
$GPGGA,113511.00,5215.72993,N,00005.05790,W,1,11,0.91,1702.1,M,45.8,M,,*77
$GPGGA,113516.00,5215.74305,N,00005.03765,W,1,11,0.91,1726.6,M,45.8,M,,*7E
$GPGGA,113521.00,5215.76122,N,00005.03775,W,1,11,0.91,1755.7,M,45.8,M,,*7B
$GPGGA,113526.00,5215.77779,N,00005.02667,W,1,11,0.91,1785.9,M,45.8,M,,*75
$GPGGA,113531.00,5215.80163,N,00005.02582,W,1,11,0.91,1814.5,M,45.8,M,,*75
$GPGGA,113536.00,5215.82051,N,00005.03507,W,1,11,0.91,1841.7,M,45.8,M,,*7E
$GPGGA,113541.00,5215.83177,N,00005.02143,W,1,11,0.91,1865.4,M,45.8,M,,*7A
$GPGGA,113546.00,5215.84981,N,00005.00907,W,1,11,0.91,1888.1,M,45.8,M,,*77
$GPGGA,113551.00,5215.87261,N,00004.99841,W,1,11,0.91,1909.7,M,45.8,M,,*7B
$GPGGA,113556.00,5215.89485,N,00005.00339,W,1,11,0.91,1930.6,M,45.8,M,,*70
$GPGGA,113601.00,5215.91884,N,00004.99086,W,1,11,0.91,1956.7,M,45.8,M,,*72
$GPGGA,113606.00,5215.94317,N,00004.97844,W,1,11,0.91,1978.6,M,45.8,M,,*74
$GPGGA,113611.00,5215.96684,N,00004.96468,W,1,11,0.91,2004.3,M,45.8,M,,*78
$GPGGA,113616.00,5215.98412,N,00004.97068,W,1,11,0.91,2026.9,M,45.8,M,,*73
$GPGGA,113621.00,5215.99255,N,00004.95216,W,1,11,0.91,2050.9,M,45.8,M,,*7B
$GPGGA,113626.00,5216.00207,N,00004.92954,W,1,11,0.91,2072.5,M,45.8,M,,*7E
$GPGGA,113631.00,5216.01012,N,00004.92539,W,1,11,0.91,2094.3,M,45.8,M,,*76
$GPGGA,113636.00,5216.02953,N,00004.92077,W,1,11,0.91,2116.4,M,45.8,M,,*7D
$GPGGA,113641.00,5216.05216,N,00004.90426,W,1,11,0.91,2140.3,M,45.8,M,,*76
$GPGGA,113646.00,5216.06631,N,00004.89913,W,1,11,0.91,2170.0,M,45.8,M,,*70
$GPGGA,113651.00,5216.08936,N,00004.88801,W,1,11,0.91,2190.9,M,45.8,M,,*74
$GPGGA,113656.00,5216.10053,N,00004.88548,W,1,11,0.91,2221.9,M,45.8,M,,*79
$GPGGA,113701.00,5216.12471,N,00004.88616,W,1,10,0.91,2247.7,M,45.8,M,,*7B
$GPGGA,113706.00,5216.14755,N,00004.87569,W,1,10,0.91,2272.6,M,45.8,M,,*7C
$GPGGA,113711.00,5216.17268,N,00004.87055,W,1,10,0.91,2294.1,M,45.8,M,,*77
$GPGGA,113716.00,5216.19723,N,00004.86027,W,1,10,0.98,2314.8,M,45.8,M,,*79
$GPGGA,113721.00,5216.21146,N,00004.84050,W,1,10,0.91,2336.4,M,45.8,M,,*74
$GPGGA,113726.00,5216.21906,N,00004.83022,W,1,10,1.04,2360.9,M,45.8,M,,*7E
$GPGGA,113731.00,5216.23772,N,00004.83419,W,1,10,0.91,2389.9,M,45.8,M,,*71
$GPGGA,113736.00,5216.26110,N,00004.83417,W,1,10,0.98,2413.3,M,45.8,M,,*78
$GPGGA,113741.00,5216.28144,N,00004.83961,W,1,10,0.91,2440.8,M,45.8,M,,*7F
$GPGGA,113746.00,5216.29459,N,00004.83929,W,1,10,0.91,2475.7,M,45.8,M,,*75
$GPGGA,113751.00,5216.32066,N,00004.82846,W,1,10,0.91,2504.8,M,45.8,M,,*70
$GPGGA,113756.00,5216.33803,N,00004.83300,W,1,10,0.91,2536.2,M,45.8,M,,*7E
$GPGGA,113801.00,5216.36454,N,00004.82866,W,1,10,0.91,2562.3,M,45.8,M,,*72
$GPGGA,113806.00,5216.38276,N,00004.83707,W,1,10,0.91,2593.4,M,45.8,M,,*7D
$GPGGA,113811.00,5216.40657,N,00004.82316,W,1,10,0.91,2627.4,M,45.8,M,,*7A
$GPGGA,113816.00,5216.43645,N,00004.80750,W,1,10,0.91,2651.9,M,45.8,M,,*75
$GPGGA,113821.00,5216.46043,N,00004.81571,W,1,10,0.91,2672.9,M,45.8,M,,*75
$GPGGA,113826.00,5216.47481,N,00004.81774,W,1,10,0.91,2693.6,M,45.8,M,,*7E
$GPGGA,113831.00,5216.48557,N,00004.81142,W,1,10,0.91,2714.6,M,45.8,M,,*70
$GPGGA,113836.00,5216.49748,N,00004.80859,W,1,10,0.91,2741.7,M,45.8,M,,*79
$GPGGA,113841.00,5216.50817,N,00004.80797,W,1,10,0.91,2764.3,M,45.8,M,,*7A
$GPGGA,113846.00,5216.52212,N,00004.78636,W,1,10,0.91,2789.6,M,45.8,M,,*7B
$GPGGA,113851.00,5216.53038,N,00004.76551,W,1,10,0.92,2815.8,M,45.8,M,,*7D
$GPGGA,113856.00,5216.55020,N,00004.76599,W,1,10,0.92,2842.4,M,45.8,M,,*7F
$GPGGA,113901.00,5216.55650,N,00004.76048,W,1,10,0.92,2864.2,M,45.8,M,,*76
$GPGGA,113906.00,5216.57430,N,00004.74596,W,1,10,0.92,2886.4,M,45.8,M,,*79
$GPGGA,113911.00,5216.59780,N,00004.75414,W,1,10,0.92,2909.3,M,45.8,M,,*72
$GPGGA,113916.00,5216.62222,N,00004.75849,W,1,10,0.92,2929.7,M,45.8,M,,*72
$GPGGA,113921.00,5216.64725,N,00004.75905,W,1,10,0.92,2950.4,M,45.8,M,,*76
$GPGGA,113926.00,5216.67315,N,00004.75206,W,1,10,0.92,2972.4,M,45.8,M,,*7D
$GPGGA,113931.00,5216.69836,N,00004.74250,W,1,10,0.92,2997.1,M,45.8,M,,*73
$GPGGA,113936.00,5216.70993,N,00004.74457,W,1,10,0.92,3029.3,M,45.8,M,,*7C
$GPGGA,113941.00,5216.73505,N,00004.73482,W,1,10,0.92,3059.3,M,45.8,M,,*74
$GPGGA,113946.00,5216.74507,N,00004.71859,W,1,10,0.92,3084.0,M,45.8,M,,*7D
$GPGGA,113951.00,5216.75220,N,00004.71230,W,1,10,0.92,3107.8,M,45.8,M,,*7F
$GPGGA,113956.00,5216.76159,N,00004.72892,W,1,10,0.98,3128.5,M,45.8,M,,*7D
$GPGGA,114001.00,5216.77790,N,00004.73694,W,1,10,0.92,3154.4,M,45.8,M,,*7A
$GPGGA,114006.00,5216.78507,N,00004.72615,W,1,10,0.92,3180.8,M,45.8,M,,*73
$GPGGA,114011.00,5216.79117,N,00004.72849,W,1,10,0.92,3204.3,M,45.8,M,,*72
$GPGGA,114016.00,5216.79979,N,00004.73976,W,1,10,0.92,3224.8,M,45.8,M,,*70
$GPGGA,114021.00,5216.81825,N,00004.75126,W,1,10,0.92,3246.4,M,45.8,M,,*78
$GPGGA,114026.00,5216.83265,N,00004.76630,W,1,10,0.92,3269.2,M,45.8,M,,*7B
$GPGGA,114031.00,5216.84682,N,00004.78130,W,1,10,0.92,3291.6,M,45.8,M,,*7D
$GPGGA,114036.00,5216.86822,N,00004.79143,W,1,10,0.92,3315.9,M,45.8,M,,*7B
$GPGGA,114041.00,5216.89063,N,00004.79741,W,1,10,0.92,3342.1,M,45.8,M,,*77
$GPGGA,114046.00,5216.90489,N,00004.81290,W,1,10,0.92,3363.6,M,45.8,M,,*72
$GPGGA,114051.00,5216.91775,N,00004.81825,W,1,10,0.92,3390.3,M,45.8,M,,*78
$GPGGA,114056.00,5216.94320,N,00004.81140,W,1,10,0.92,3414.7,M,45.8,M,,*7B
$GPGGA,114101.00,5216.95685,N,00004.80118,W,1,10,0.92,3437.0,M,45.8,M,,*79
$GPGGA,114106.00,5216.98060,N,00004.79611,W,1,10,0.92,3463.8,M,45.8,M,,*7F
$GPGGA,114111.00,5216.99844,N,00004.80774,W,1,10,0.92,3488.5,M,45.8,M,,*7A
$GPGGA,114116.00,5217.01170,N,00004.79871,W,1,10,0.92,3514.6,M,45.8,M,,*78
$GPGGA,114121.00,5217.03516,N,00004.77932,W,1,10,0.92,3534.7,M,45.8,M,,*71
$GPGGA,114126.00,5217.06192,N,00004.76187,W,1,10,0.92,3554.6,M,45.8,M,,*7B
$GPGGA,114131.00,5217.08488,N,00004.75780,W,1,10,0.92,3577.9,M,45.8,M,,*71
$GPGGA,114136.00,5217.10040,N,00004.75609,W,1,10,0.92,3602.8,M,45.8,M,,*7F
$GPGGA,114141.00,5217.11402,N,00004.73424,W,1,10,0.92,3624.1,M,45.8,M,,*7A
$GPGGA,114146.00,5217.13904,N,00004.72621,W,1,10,0.92,3648.1,M,45.8,M,,*78
$GPGGA,114151.00,5217.15728,N,00004.72706,W,1,10,0.92,3673.1,M,45.8,M,,*74
$GPGGA,114156.00,5217.17331,N,00004.72976,W,1,10,0.92,3699.1,M,45.8,M,,*70
$GPGGA,114201.00,5217.18407,N,00004.71357,W,1,10,0.92,3727.2,M,45.8,M,,*71
$GPGGA,114206.00,5217.20116,N,00004.68604,W,1,10,0.92,3751.1,M,45.8,M,,*71
$GPGGA,114211.00,5217.21305,N,00004.65728,W,1,10,0.92,3773.8,M,45.8,M,,*7D
$GPGGA,114216.00,5217.22450,N,00004.63195,W,1,10,0.92,3798.8,M,45.8,M,,*7D
$GPGGA,114221.00,5217.23145,N,00004.61350,W,1,10,0.92,3821.8,M,45.8,M,,*7D
$GPGGA,114226.00,5217.24771,N,00004.61454,W,1,10,0.92,3845.0,M,45.8,M,,*75
$GPGGA,114231.00,5217.25846,N,00004.60338,W,1,10,0.92,3867.4,M,45.8,M,,*71
$GPGGA,114236.00,5217.26948,N,00004.59172,W,1,10,0.92,3887.3,M,45.8,M,,*75
$GPGGA,114241.00,5217.28581,N,00004.59115,W,1,10,0.92,3907.7,M,45.8,M,,*7E
$GPGGA,114246.00,5217.29998,N,00004.57137,W,1,10,0.92,3931.4,M,45.8,M,,*74
$GPGGA,114251.00,5217.31778,N,00004.54936,W,1,10,0.92,3955.8,M,45.8,M,,*7F
$GPGGA,114256.00,5217.34785,N,00004.53133,W,1,10,0.92,3976.3,M,45.8,M,,*7F
$GPGGA,114301.00,5217.36549,N,00004.52208,W,1,10,0.96,4005.2,M,45.8,M,,*79
$GPGGA,114306.00,5217.37597,N,00004.51011,W,1,10,0.93,4026.7,M,45.8,M,,*74
$GPGGA,114311.00,5217.39877,N,00004.48864,W,1,10,0.93,4052.0,M,45.8,M,,*79
$GPGGA,114316.00,5217.42792,N,00004.47859,W,1,10,0.93,4074.0,M,45.8,M,,*73
$GPGGA,114321.00,5217.45673,N,00004.46624,W,1,10,0.93,4094.2,M,45.8,M,,*77
$GPGGA,114326.00,5217.48522,N,00004.44782,W,1,10,0.93,4115.9,M,45.8,M,,*76
$GPGGA,114331.00,5217.51248,N,00004.44476,W,1,10,0.93,4135.3,M,45.8,M,,*73
$GPGGA,114336.00,5217.53606,N,00004.44021,W,1,10,0.93,4159.4,M,45.8,M,,*73
$GPGGA,114341.00,5217.54985,N,00004.43489,W,1,10,0.93,4184.4,M,45.8,M,,*71
$GPGGA,114346.00,5217.57335,N,00004.40758,W,1,10,0.93,4210.4,M,45.8,M,,*76
$GPGGA,114351.00,5217.60101,N,00004.40088,W,1,10,0.93,4234.7,M,45.8,M,,*7E
$GPGGA,114356.00,5217.63103,N,00004.38204,W,1,10,0.99,4259.4,M,45.8,M,,*73
$GPGGA,114401.00,5217.65331,N,00004.36132,W,1,10,0.93,4284.8,M,45.8,M,,*7D
$GPGGA,114406.00,5217.67093,N,00004.36146,W,1,10,0.93,4312.4,M,45.8,M,,*72
$GPGGA,114411.00,5217.68976,N,00004.33340,W,1,10,0.93,4341.3,M,45.8,M,,*79
$GPGGA,114416.00,5217.71498,N,00004.33485,W,1,10,0.93,4370.9,M,45.8,M,,*7D
$GPGGA,114421.00,5217.74329,N,00004.30937,W,1,10,0.93,4391.4,M,45.8,M,,*74
$GPGGA,114426.00,5217.77221,N,00004.30062,W,1,10,0.93,4417.7,M,45.8,M,,*7A
$GPGGA,114431.00,5217.78827,N,00004.30289,W,1,10,0.93,4440.9,M,45.8,M,,*74
$GPGGA,114436.00,5217.81139,N,00004.28498,W,1,10,0.93,4470.5,M,45.8,M,,*73
$GPGGA,114441.00,5217.84800,N,00004.27156,W,1,10,0.93,4494.6,M,45.8,M,,*74
$GPGGA,114446.00,5217.87233,N,00004.26000,W,1,10,0.93,4528.1,M,45.8,M,,*78
$GPGGA,114451.00,5217.90674,N,00004.23633,W,1,10,0.93,4557.6,M,45.8,M,,*73
$GPGGA,114456.00,5217.92422,N,00004.21448,W,1,10,0.93,4583.9,M,45.8,M,,*7D
$GPGGA,114501.00,5217.94354,N,00004.19502,W,1,10,0.93,4607.6,M,45.8,M,,*7A
$GPGGA,114506.00,5217.96732,N,00004.18745,W,1,10,0.93,4629.3,M,45.8,M,,*72
$GPGGA,114511.00,5218.00139,N,00004.17934,W,1,10,0.93,4650.7,M,45.8,M,,*74
$GPGGA,114516.00,5218.02263,N,00004.15672,W,1,10,0.93,4675.7,M,45.8,M,,*75
$GPGGA,114521.00,5218.04891,N,00004.13352,W,1,10,0.93,4705.2,M,45.8,M,,*72
$GPGGA,114526.00,5218.07840,N,00004.12333,W,1,10,0.93,4727.2,M,45.8,M,,*7C
$GPGGA,114531.00,5218.10032,N,00004.09913,W,1,10,0.93,4751.8,M,45.8,M,,*78
$GPGGA,114536.00,5218.11998,N,00004.07801,W,1,10,0.93,4776.5,M,45.8,M,,*73
$GPGGA,114541.00,5218.14197,N,00004.04601,W,1,10,0.93,4806.2,M,45.8,M,,*73
$GPGGA,114546.00,5218.17934,N,00004.02728,W,1,09,0.97,4835.1,M,45.8,M,,*75
$GPGGA,114551.00,5218.20955,N,00003.98731,W,1,10,0.93,4857.2,M,45.8,M,,*77
$GPGGA,114556.00,5218.25273,N,00003.96324,W,1,10,0.93,4878.2,M,45.8,M,,*79
$GPGGA,114601.00,5218.28924,N,00003.94004,W,1,10,0.93,4904.0,M,45.8,M,,*77
$GPGGA,114606.00,5218.32365,N,00003.90021,W,1,10,0.93,4939.4,M,45.8,M,,*7D
$GPGGA,114611.00,5218.34798,N,00003.88815,W,1,10,0.93,4966.5,M,45.8,M,,*76
$GPGGA,114616.00,5218.37168,N,00003.85976,W,1,10,0.93,4989.8,M,45.8,M,,*7E
$GPGGA,114621.00,5218.40178,N,00003.82795,W,1,10,0.93,5027.6,M,45.8,M,,*7D
$GPGGA,114626.00,5218.42372,N,00003.80275,W,1,10,0.93,5059.2,M,45.8,M,,*74
$GPGGA,114631.00,5218.45037,N,00003.75815,W,1,10,0.93,5086.6,M,45.8,M,,*77
$GPGGA,114636.00,5218.48850,N,00003.73181,W,1,10,0.93,5112.6,M,45.8,M,,*7A
$GPGGA,114641.00,5218.52561,N,00003.70948,W,1,10,0.93,5135.9,M,45.8,M,,*7A
$GPGGA,114646.00,5218.55965,N,00003.68224,W,1,10,0.93,5159.7,M,45.8,M,,*7E
$GPGGA,114651.00,5218.59458,N,00003.64912,W,1,10,0.93,5188.8,M,45.8,M,,*76
$GPGGA,114656.00,5218.62440,N,00003.64027,W,1,10,0.93,5214.7,M,45.8,M,,*76
$GPGGA,114701.00,5218.64907,N,00003.61292,W,1,10,0.93,5239.7,M,45.8,M,,*7B
$GPGGA,114706.00,5218.67278,N,00003.57371,W,1,10,0.93,5260.9,M,45.8,M,,*77
$GPGGA,114711.00,5218.70306,N,00003.55311,W,1,10,0.93,5286.4,M,45.8,M,,*7E
$GPGGA,114716.00,5218.72824,N,00003.53554,W,1,10,0.93,5309.0,M,45.8,M,,*73
$GPGGA,114721.00,5218.75466,N,00003.51020,W,1,10,0.97,5339.1,M,45.8,M,,*78
$GPGGA,114726.00,5218.77384,N,00003.46495,W,1,10,0.93,5365.5,M,45.8,M,,*73
$GPGGA,114731.00,5218.79034,N,00003.43360,W,1,10,0.93,5390.0,M,45.8,M,,*74
$GPGGA,114736.00,5218.81028,N,00003.41456,W,1,10,0.93,5412.0,M,45.8,M,,*74
$GPGGA,114741.00,5218.83432,N,00003.37941,W,1,10,0.93,5447.1,M,45.8,M,,*72
$GPGGA,114746.00,5218.85779,N,00003.32868,W,1,10,0.93,5468.2,M,45.8,M,,*7E
$GPGGA,114751.00,5218.88422,N,00003.28376,W,1,10,0.93,5494.8,M,45.8,M,,*7E
$GPGGA,114756.00,5218.91023,N,00003.24454,W,1,10,0.93,5526.1,M,45.8,M,,*7E
$GPGGA,114801.00,5218.92490,N,00003.20678,W,1,10,0.93,5550.1,M,45.8,M,,*75
$GPGGA,114806.00,5218.94389,N,00003.16132,W,1,10,0.93,5572.9,M,45.8,M,,*7F
$GPGGA,114811.00,5218.96461,N,00003.12521,W,1,10,0.93,5604.3,M,45.8,M,,*70
$GPGGA,114816.00,5219.00124,N,00003.09042,W,1,10,0.93,5628.1,M,45.8,M,,*7B
$GPGGA,114821.00,5219.02251,N,00003.05903,W,1,10,0.93,5658.5,M,45.8,M,,*7F
$GPGGA,114826.00,5219.04071,N,00003.02457,W,1,10,0.93,5685.6,M,45.8,M,,*76
$GPGGA,114831.00,5219.07595,N,00002.98551,W,1,10,0.93,5720.5,M,45.8,M,,*74
$GPGGA,114836.00,5219.11073,N,00002.93477,W,1,10,0.93,5739.3,M,45.8,M,,*79
$GPGGA,114841.00,5219.13294,N,00002.89313,W,1,10,0.93,5766.4,M,45.8,M,,*73
$GPGGA,114846.00,5219.15265,N,00002.85555,W,1,10,0.94,5789.1,M,45.8,M,,*77
$GPGGA,114851.00,5219.17712,N,00002.82038,W,1,10,0.94,5816.4,M,45.8,M,,*73
$GPGGA,114856.00,5219.21354,N,00002.76216,W,1,10,0.94,5845.7,M,45.7,M,,*78
$GPGGA,114901.00,5219.23926,N,00002.71049,W,1,10,0.94,5875.8,M,45.7,M,,*75
$GPGGA,114906.00,5219.26995,N,00002.65423,W,1,10,0.94,5900.4,M,45.7,M,,*7D
$GPGGA,114911.00,5219.31244,N,00002.60651,W,1,10,0.94,5926.8,M,45.7,M,,*70
$GPGGA,114916.00,5219.34206,N,00002.57243,W,1,10,0.94,5953.9,M,45.7,M,,*74
$GPGGA,114921.00,5219.37299,N,00002.53415,W,1,10,0.94,5978.8,M,45.7,M,,*7C
$GPGGA,114926.00,5219.40136,N,00002.47654,W,1,10,0.94,6006.1,M,45.7,M,,*75
$GPGGA,114931.00,5219.43474,N,00002.41747,W,1,10,0.94,6030.6,M,45.7,M,,*74
$GPGGA,114936.00,5219.46455,N,00002.36757,W,1,10,0.94,6055.2,M,45.7,M,,*73
$GPGGA,114941.00,5219.50520,N,00002.32959,W,1,10,1.07,6077.7,M,45.7,M,,*7D
$GPGGA,114946.00,5219.53949,N,00002.27549,W,1,10,0.94,6104.7,M,45.7,M,,*7D
$GPGGA,114951.00,5219.57076,N,00002.23813,W,1,10,0.94,6132.4,M,45.7,M,,*7A
$GPGGA,114956.00,5219.60663,N,00002.17974,W,1,10,0.94,6164.7,M,45.7,M,,*7C
$GPGGA,115001.00,5219.63127,N,00002.12352,W,1,10,0.94,6188.6,M,45.7,M,,*7A
$GPGGA,115006.00,5219.66639,N,00002.07692,W,1,10,0.96,6213.6,M,45.7,M,,*7E
$GPGGA,115011.00,5219.68736,N,00002.02609,W,1,10,0.94,6236.4,M,45.7,M,,*78
$GPGGA,115016.00,5219.71654,N,00001.98176,W,1,10,0.94,6266.2,M,45.7,M,,*7E
$GPGGA,115021.00,5219.74401,N,00001.92304,W,1,10,0.94,6294.5,M,45.7,M,,*7A
$GPGGA,115026.00,5219.77793,N,00001.87557,W,1,10,0.94,6327.2,M,45.7,M,,*7C
$GPGGA,115031.00,5219.80538,N,00001.84639,W,1,10,0.94,6347.9,M,45.7,M,,*74
$GPGGA,115036.00,5219.83172,N,00001.81528,W,1,09,1.18,6374.6,M,45.7,M,,*7E
$GPGGA,115041.00,5219.86155,N,00001.77542,W,1,10,0.94,6405.2,M,45.7,M,,*73
$GPGGA,115046.00,5219.88781,N,00001.71401,W,1,10,0.94,6427.8,M,45.7,M,,*7F
$GPGGA,115051.00,5219.91881,N,00001.65858,W,1,10,0.99,6456.9,M,45.7,M,,*71
$GPGGA,115056.00,5219.93942,N,00001.61587,W,1,10,0.94,6489.4,M,45.7,M,,*73
$GPGGA,115101.00,5219.96623,N,00001.56495,W,1,10,0.94,6519.9,M,45.7,M,,*7E
$GPGGA,115106.00,5219.98803,N,00001.51560,W,1,10,0.94,6542.0,M,45.7,M,,*70
$GPGGA,115111.00,5220.01194,N,00001.48241,W,1,10,0.94,6569.2,M,45.7,M,,*7C
$GPGGA,115116.00,5220.03717,N,00001.44373,W,1,10,0.94,6595.7,M,45.7,M,,*7E
$GPGGA,115121.00,5220.07449,N,00001.40599,W,1,10,0.94,6620.1,M,45.7,M,,*7B
$GPGGA,115126.00,5220.10237,N,00001.37757,W,1,10,0.94,6646.3,M,45.7,M,,*77
$GPGGA,115131.00,5220.13121,N,00001.34569,W,1,10,0.94,6673.3,M,45.7,M,,*7C
$GPGGA,115136.00,5220.15896,N,00001.31497,W,1,10,0.94,6696.6,M,45.7,M,,*73
$GPGGA,115141.00,5220.18709,N,00001.28042,W,1,10,0.94,6719.4,M,45.7,M,,*77
$GPGGA,115146.00,5220.21560,N,00001.24722,W,1,10,0.94,6743.6,M,45.7,M,,*77
$GPGGA,115151.00,5220.24261,N,00001.21407,W,1,10,0.94,6772.7,M,45.7,M,,*70
$GPGGA,115156.00,5220.27505,N,00001.17055,W,1,10,0.94,6808.8,M,45.7,M,,*7A
$GPGGA,115201.00,5220.29934,N,00001.11212,W,1,10,0.94,6838.6,M,45.7,M,,*71
$GPGGA,115206.00,5220.32622,N,00001.06118,W,1,10,0.94,6864.2,M,45.7,M,,*76
$GPGGA,115211.00,5220.34899,N,00001.02529,W,1,10,0.94,6890.9,M,45.7,M,,*7A
$GPGGA,115216.00,5220.38061,N,00000.96737,W,1,10,0.94,6917.7,M,45.7,M,,*7F
$GPGGA,115221.00,5220.40378,N,00000.91444,W,1,10,0.94,6942.0,M,45.7,M,,*78
$GPGGA,115226.00,5220.43313,N,00000.86357,W,1,10,0.94,6963.4,M,45.7,M,,*75
$GPGGA,115231.00,5220.46281,N,00000.82468,W,1,10,0.94,6989.4,M,45.7,M,,*77
$GPGGA,115236.00,5220.49675,N,00000.77884,W,1,10,0.94,7019.3,M,45.7,M,,*72
$GPGGA,115241.00,5220.52467,N,00000.74876,W,1,10,0.94,7046.2,M,45.7,M,,*7C
$GPGGA,115246.00,5220.54775,N,00000.70897,W,1,10,0.94,7074.1,M,45.7,M,,*74
$GPGGA,115251.00,5220.57950,N,00000.65687,W,1,10,0.94,7100.6,M,45.7,M,,*76
$GPGGA,115256.00,5220.61820,N,00000.61793,W,1,10,0.94,7129.9,M,45.7,M,,*76
$GPGGA,115301.00,5220.64803,N,00000.57393,W,1,10,0.94,7157.2,M,45.7,M,,*72
$GPGGA,115306.00,5220.68172,N,00000.53683,W,1,10,0.94,7181.3,M,45.7,M,,*7C
$GPGGA,115311.00,5220.71547,N,00000.49491,W,1,10,0.94,7204.7,M,45.7,M,,*70
$GPGGA,115316.00,5220.74448,N,00000.44604,W,1,10,0.94,7227.3,M,45.7,M,,*7A
$GPGGA,115321.00,5220.76356,N,00000.39210,W,1,10,0.94,7251.6,M,45.7,M,,*7B
$GPGGA,115326.00,5220.78390,N,00000.35729,W,1,10,0.94,7270.9,M,45.7,M,,*77
$GPGGA,115331.00,5220.81436,N,00000.31852,W,1,10,0.94,7298.5,M,45.7,M,,*71
$GPGGA,115336.00,5220.84490,N,00000.26759,W,1,11,0.94,7329.1,M,45.7,M,,*73
$GPGGA,115341.00,5220.86525,N,00000.22349,W,1,11,0.94,7353.1,M,45.7,M,,*72
$GPGGA,115346.00,5220.89177,N,00000.17412,W,1,11,0.94,7374.7,M,45.7,M,,*75
$GPGGA,115351.00,5220.91765,N,00000.12485,W,1,11,0.96,7399.6,M,45.7,M,,*74
$GPGGA,115356.00,5220.94516,N,00000.07526,W,1,11,0.94,7435.6,M,45.7,M,,*7F
$GPGGA,115401.00,5220.96119,N,00000.03862,W,1,11,0.94,7453.2,M,45.7,M,,*7E
$GPGGA,115406.00,5220.98441,N,00000.01129,E,1,11,0.94,7474.0,M,45.7,M,,*6E
$GPGGA,115411.00,5221.01282,N,00000.04741,E,1,11,0.94,7500.6,M,45.7,M,,*69
$GPGGA,115416.00,5221.03992,N,00000.10113,E,1,11,0.94,7528.1,M,45.7,M,,*6F
$GPGGA,115421.00,5221.05435,N,00000.14344,E,1,11,0.85,7553.2,M,45.7,M,,*66
$GPGGA,115426.00,5221.08203,N,00000.20213,E,1,11,0.85,7575.7,M,45.7,M,,*6A
$GPGGA,115431.00,5221.10844,N,00000.26476,E,1,11,0.85,7597.7,M,45.7,M,,*63
$GPGGA,115436.00,5221.12554,N,00000.32404,E,1,11,0.85,7619.0,M,45.7,M,,*68
$GPGGA,115441.00,5221.14884,N,00000.37073,E,1,11,0.85,7641.1,M,45.7,M,,*63
$GPGGA,115446.00,5221.17158,N,00000.41346,E,1,11,0.85,7666.7,M,45.7,M,,*68
$GPGGA,115451.00,5221.19686,N,00000.45109,E,1,11,0.85,7697.3,M,45.7,M,,*63
$GPGGA,115456.00,5221.21320,N,00000.48922,E,1,11,0.85,7717.7,M,45.7,M,,*67
$GPGGA,115501.00,5221.23874,N,00000.51599,E,1,11,0.85,7738.6,M,45.7,M,,*64
$GPGGA,115506.00,5221.26634,N,00000.56166,E,1,11,0.85,7762.1,M,45.7,M,,*67
$GPGGA,115511.00,5221.29254,N,00000.60100,E,1,11,0.85,7791.5,M,45.7,M,,*61
$GPGGA,115516.00,5221.31143,N,00000.65739,E,1,11,0.85,7811.8,M,45.7,M,,*69
$GPGGA,115521.00,5221.33701,N,00000.70452,E,1,11,0.85,7834.1,M,45.7,M,,*6B
$GPGGA,115526.00,5221.36320,N,00000.74823,E,1,11,0.85,7859.3,M,45.7,M,,*69
$GPGGA,115531.00,5221.39312,N,00000.78978,E,1,11,0.92,7881.2,M,45.7,M,,*60
$GPGGA,115536.00,5221.41352,N,00000.84102,E,1,11,0.85,7909.1,M,45.7,M,,*6E
$GPGGA,115541.00,5221.42926,N,00000.87447,E,1,11,0.85,7947.8,M,45.7,M,,*60
$GPGGA,115546.00,5221.43850,N,00000.90885,E,1,11,0.85,7971.0,M,45.7,M,,*6F
$GPGGA,115551.00,5221.45626,N,00000.92827,E,1,11,0.85,7998.2,M,45.7,M,,*6F
$GPGGA,115556.00,5221.47399,N,00000.94749,E,1,11,0.85,8027.6,M,45.7,M,,*6C
$GPGGA,115601.00,5221.48242,N,00000.97181,E,1,11,0.85,8050.0,M,45.7,M,,*62
$GPGGA,115606.00,5221.49450,N,00000.98814,E,1,11,0.85,8074.9,M,45.7,M,,*64
$GPGGA,115611.00,5221.51144,N,00001.02782,E,1,11,0.85,8095.7,M,45.7,M,,*68
$GPGGA,115616.00,5221.52158,N,00001.03923,E,1,11,0.85,8121.0,M,45.7,M,,*6C
$GPGGA,115621.00,5221.53291,N,00001.06352,E,1,11,0.85,8145.0,M,45.7,M,,*64
$GPGGA,115626.00,5221.54495,N,00001.07843,E,1,11,0.85,8171.1,M,45.7,M,,*6A
$GPGGA,115631.00,5221.55890,N,00001.10483,E,1,11,1.09,8198.0,M,45.7,M,,*61
$GPGGA,115636.00,5221.57410,N,00001.11868,E,1,11,0.85,8226.5,M,45.7,M,,*6E
$GPGGA,115641.00,5221.58594,N,00001.12239,E,1,11,0.85,8249.0,M,45.7,M,,*6D
$GPGGA,115646.00,5221.59910,N,00001.14027,E,1,11,0.85,8271.4,M,45.7,M,,*6F
$GPGGA,115651.00,5221.60780,N,00001.15932,E,1,11,0.85,8295.8,M,45.7,M,,*6E
$GPGGA,115656.00,5221.62700,N,00001.16352,E,1,11,0.85,8320.0,M,45.7,M,,*6B
$GPGGA,115701.00,5221.65031,N,00001.17144,E,1,11,0.85,8345.0,M,45.7,M,,*6D
$GPGGA,115706.00,5221.66969,N,00001.18389,E,1,11,0.85,8373.5,M,45.7,M,,*61
$GPGGA,115711.00,5221.67941,N,00001.19868,E,1,11,0.85,8400.4,M,45.7,M,,*6B
$GPGGA,115716.00,5221.70002,N,00001.21529,E,1,11,0.85,8422.0,M,45.7,M,,*63
$GPGGA,115721.00,5221.72293,N,00001.23711,E,1,11,0.85,8456.3,M,45.7,M,,*64
$GPGGA,115726.00,5221.74590,N,00001.23115,E,1,11,0.85,8480.6,M,45.7,M,,*6D
$GPGGA,115731.00,5221.75958,N,00001.23497,E,1,11,0.85,8504.7,M,45.7,M,,*61
$GPGGA,115736.00,5221.78134,N,00001.25149,E,1,11,0.85,8523.7,M,45.7,M,,*6C
$GPGGA,115741.00,5221.79302,N,00001.26800,E,1,11,0.85,8547.5,M,45.7,M,,*6D
$GPGGA,115746.00,5221.80316,N,00001.28099,E,1,11,0.85,8576.2,M,45.7,M,,*6A
$GPGGA,115751.00,5221.81790,N,00001.27759,E,1,11,0.85,8602.2,M,45.7,M,,*63
$GPGGA,115756.00,5221.82620,N,00001.29202,E,1,11,0.85,8627.2,M,45.7,M,,*6F
$GPGGA,115801.00,5221.83944,N,00001.30760,E,1,11,0.85,8657.0,M,45.7,M,,*62
$GPGGA,115806.00,5221.86011,N,00001.30650,E,1,11,0.85,8686.0,M,45.7,M,,*67
$GPGGA,115811.00,5221.87652,N,00001.30206,E,1,11,0.85,8711.2,M,45.7,M,,*6B
$GPGGA,115816.00,5221.88763,N,00001.30595,E,1,11,0.85,8735.1,M,45.7,M,,*68
$GPGGA,115821.00,5221.89198,N,00001.32796,E,1,11,0.85,8758.0,M,45.7,M,,*66
$GPGGA,115826.00,5221.90805,N,00001.33572,E,1,11,0.85,8780.0,M,45.7,M,,*68
$GPGGA,115831.00,5221.92486,N,00001.33940,E,1,11,0.85,8805.8,M,45.7,M,,*6C
$GPGGA,115836.00,5221.93869,N,00001.34493,E,1,11,0.85,8837.0,M,45.7,M,,*6A
$GPGGA,115841.00,5221.95304,N,00001.34095,E,1,11,0.85,8864.0,M,45.7,M,,*68
$GPGGA,115846.00,5221.96877,N,00001.35463,E,1,11,0.85,8896.2,M,45.7,M,,*60
$GPGGA,115851.00,5221.98516,N,00001.38887,E,1,11,0.85,8918.8,M,45.7,M,,*64
$GPGGA,115856.00,5221.99375,N,00001.41715,E,1,11,0.85,8940.4,M,45.7,M,,*6A
$GPGGA,115901.00,5221.99944,N,00001.43238,E,1,11,0.85,8959.9,M,45.7,M,,*6C
$GPGGA,115906.00,5222.01466,N,00001.44964,E,1,11,0.85,8981.8,M,45.7,M,,*65
$GPGGA,115911.00,5222.02368,N,00001.46504,E,1,11,0.93,9002.2,M,45.7,M,,*6F
$GPGGA,115916.00,5222.03411,N,00001.48407,E,1,11,0.85,9025.3,M,45.7,M,,*6F
$GPGGA,115921.00,5222.04441,N,00001.50471,E,1,11,0.85,9047.3,M,45.7,M,,*65
$GPGGA,115926.00,5222.05663,N,00001.52947,E,1,11,0.85,9072.2,M,45.7,M,,*6C
$GPGGA,115931.00,5222.07137,N,00001.54873,E,1,11,0.85,9095.4,M,45.7,M,,*61
$GPGGA,115936.00,5222.08421,N,00001.56250,E,1,11,0.85,9118.4,M,45.7,M,,*66
$GPGGA,115941.00,5222.09559,N,00001.58003,E,1,11,0.85,9139.1,M,45.7,M,,*65
$GPGGA,115946.00,5222.10511,N,00001.59839,E,1,11,0.85,9164.5,M,45.7,M,,*6A
$GPGGA,115951.00,5222.12020,N,00001.62117,E,1,11,0.85,9191.6,M,45.7,M,,*6D
$GPGGA,115956.00,5222.13587,N,00001.63390,E,1,11,0.88,9217.7,M,45.7,M,,*6E
$GPGGA,120001.00,5222.14315,N,00001.65680,E,1,11,0.85,9239.7,M,45.7,M,,*6A
$GPGGA,120006.00,5222.15693,N,00001.68070,E,1,11,0.85,9263.8,M,45.7,M,,*63
$GPGGA,120011.00,5222.16713,N,00001.70134,E,1,11,0.89,9290.7,M,45.7,M,,*68
$GPGGA,120016.00,5222.17855,N,00001.71197,E,1,11,0.85,9316.7,M,45.7,M,,*68
$GPGGA,120021.00,5222.19436,N,00001.71683,E,1,11,0.85,9345.0,M,45.7,M,,*68
$GPGGA,120026.00,5222.20567,N,00001.72983,E,1,11,0.85,9370.5,M,45.7,M,,*6F
$GPGGA,120031.00,5222.21991,N,00001.74575,E,1,11,0.85,9394.4,M,45.7,M,,*65
$GPGGA,120036.00,5222.23376,N,00001.76989,E,1,11,0.85,9419.1,M,45.7,M,,*69
$GPGGA,120041.00,5222.25033,N,00001.78612,E,1,11,0.85,9443.4,M,45.7,M,,*64
$GPGGA,120046.00,5222.27074,N,00001.79778,E,1,11,0.85,9469.7,M,45.7,M,,*65
$GPGGA,120051.00,5222.28460,N,00001.81034,E,1,11,0.87,9497.4,M,45.7,M,,*65
$GPGGA,120056.00,5222.29890,N,00001.82275,E,1,11,0.85,9525.4,M,45.7,M,,*6E
$GPGGA,120101.00,5222.31281,N,00001.85044,E,1,11,0.85,9554.1,M,45.7,M,,*6A
$GPGGA,120106.00,5222.32427,N,00001.85798,E,1,11,0.85,9581.9,M,45.7,M,,*62
$GPGGA,120111.00,5222.33318,N,00001.87549,E,1,11,0.91,9612.0,M,45.7,M,,*67
$GPGGA,120116.00,5222.33947,N,00001.90529,E,1,11,0.85,9636.1,M,45.7,M,,*62
$GPGGA,120121.00,5222.34861,N,00001.94164,E,1,11,0.85,9660.5,M,45.7,M,,*6A
$GPGGA,120126.00,5222.35120,N,00001.96362,E,1,11,0.85,9686.0,M,45.7,M,,*6B
$GPGGA,120131.00,5222.35393,N,00001.99418,E,1,11,0.85,9712.1,M,45.7,M,,*6F
$GPGGA,120136.00,5222.36039,N,00002.02438,E,1,11,0.85,9740.8,M,45.7,M,,*65
$GPGGA,120141.00,5222.35450,N,00002.04941,E,1,11,0.85,9771.0,M,45.7,M,,*62
$GPGGA,120146.00,5222.34759,N,00002.07331,E,1,11,0.85,9799.9,M,45.7,M,,*6F
$GPGGA,120151.00,5222.34134,N,00002.11756,E,1,11,0.85,9829.8,M,45.7,M,,*63
$GPGGA,120156.00,5222.33236,N,00002.14265,E,1,11,0.85,9856.3,M,45.7,M,,*61
$GPGGA,120201.00,5222.32977,N,00002.17100,E,1,11,0.85,9891.0,M,45.7,M,,*64
$GPGGA,120206.00,5222.31839,N,00002.19089,E,1,11,0.85,9929.3,M,45.7,M,,*64
$GPGGA,120211.00,5222.30992,N,00002.24102,E,1,11,0.85,9958.0,M,45.7,M,,*6A
$GPGGA,120216.00,5222.29635,N,00002.28031,E,1,11,0.91,9986.0,M,45.7,M,,*6C
$GPGGA,120221.00,5222.29013,N,00002.30491,E,1,11,0.85,10010.9,M,45.7,M,,*5F
$GPGGA,120226.00,5222.28618,N,00002.33349,E,1,11,0.85,10035.7,M,45.7,M,,*5C
$GPGGA,120231.00,5222.28270,N,00002.37169,E,1,11,0.85,10062.9,M,45.7,M,,*58
$GPGGA,120236.00,5222.27603,N,00002.39870,E,1,11,0.85,10086.3,M,45.7,M,,*5F
$GPGGA,120241.00,5222.27159,N,00002.42243,E,1,11,0.85,10114.5,M,45.7,M,,*5D
$GPGGA,120246.00,5222.26312,N,00002.45338,E,1,11,0.85,10148.5,M,45.7,M,,*55
$GPGGA,120251.00,5222.24901,N,00002.46759,E,1,11,0.85,10180.2,M,45.7,M,,*5A
$GPGGA,120256.00,5222.23916,N,00002.47337,E,1,11,0.85,10205.6,M,45.7,M,,*5B
$GPGGA,120301.00,5222.23619,N,00002.48420,E,1,11,0.85,10237.2,M,45.7,M,,*53
$GPGGA,120306.00,5222.22756,N,00002.48902,E,1,11,0.85,10264.7,M,45.7,M,,*51
$GPGGA,120311.00,5222.22564,N,00002.49813,E,1,11,0.85,10288.7,M,45.7,M,,*56
$GPGGA,120316.00,5222.22377,N,00002.51195,E,1,11,0.85,10320.2,M,45.7,M,,*5D
$GPGGA,120321.00,5222.20309,N,00002.53444,E,1,11,0.85,10343.0,M,45.7,M,,*5E
$GPGGA,120326.00,5222.18961,N,00002.56406,E,1,11,0.85,10367.5,M,45.7,M,,*56
$GPGGA,120331.00,5222.17929,N,00002.57660,E,1,11,0.85,10404.1,M,45.7,M,,*56
$GPGGA,120336.00,5222.16089,N,00002.61410,E,1,11,0.85,10433.9,M,45.7,M,,*5F
$GPGGA,120341.00,5222.14945,N,00002.65130,E,1,11,0.85,10458.0,M,45.7,M,,*53
$GPGGA,120346.00,5222.13688,N,00002.67910,E,1,11,0.85,10484.1,M,45.7,M,,*55
$GPGGA,120351.00,5222.12773,N,00002.69762,E,2,11,0.85,10507.7,M,45.7,M,,0000*5D
$GPGGA,120356.00,5222.11836,N,00002.72714,E,2,11,0.85,10533.1,M,45.7,M,,0000*5D
$GPGGA,120401.00,5222.11754,N,00002.75529,E,2,11,0.85,10556.8,M,45.7,M,,0000*52
$GPGGA,120406.00,5222.11369,N,00002.78209,E,2,11,0.85,10581.9,M,45.7,M,,0000*5C
$GPGGA,120411.00,5222.10775,N,00002.80245,E,2,11,0.88,10606.4,M,45.7,M,,0000*51
$GPGGA,120416.00,5222.10299,N,00002.83314,E,2,11,0.85,10629.0,M,45.7,M,,0000*53
$GPGGA,120421.00,5222.09613,N,00002.86944,E,2,11,0.85,10650.8,M,45.7,M,,0000*55
$GPGGA,120426.00,5222.08980,N,00002.90276,E,2,11,0.85,10674.6,M,45.7,M,,0000*53
$GPGGA,120431.00,5222.08612,N,00002.93880,E,1,11,0.85,10702.4,M,45.7,M,,*50
$GPGGA,120436.00,5222.07828,N,00002.96444,E,1,11,0.85,10727.1,M,45.7,M,,*5C
$GPGGA,120441.00,5222.07035,N,00002.98674,E,1,11,0.85,10756.2,M,45.7,M,,*52
$GPGGA,120446.00,5222.07687,N,00003.00344,E,1,11,0.85,10782.7,M,45.7,M,,*50
$GPGGA,120451.00,5222.08666,N,00003.03280,E,1,11,0.85,10808.9,M,45.7,M,,*5F
$GPGGA,120456.00,5222.08087,N,00003.04969,E,1,11,0.85,10834.8,M,45.7,M,,*54
$GPGGA,120501.00,5222.07146,N,00003.09061,E,1,11,0.85,10861.0,M,45.7,M,,*50
$GPGGA,120506.00,5222.06413,N,00003.12682,E,1,11,0.85,10885.2,M,45.7,M,,*5A
$GPGGA,120511.00,5222.06565,N,00003.16756,E,1,11,0.85,10912.3,M,45.7,M,,*5E
$GPGGA,120516.00,5222.06389,N,00003.20641,E,1,11,0.85,10941.6,M,45.7,M,,*5C
$GPGGA,120521.00,5222.06621,N,00003.22798,E,1,11,0.92,10972.6,M,45.7,M,,*5E
$GPGGA,120526.00,5222.07068,N,00003.26378,E,1,11,0.85,10998.9,M,45.7,M,,*50
$GPGGA,120531.00,5222.06539,N,00003.28632,E,1,11,0.85,11027.0,M,45.7,M,,*56
$GPGGA,120536.00,5222.05157,N,00003.32029,E,1,11,0.85,11055.1,M,45.7,M,,*5D
$GPGGA,120541.00,5222.06037,N,00003.35332,E,1,11,0.85,11081.7,M,45.7,M,,*58
$GPGGA,120546.00,5222.06016,N,00003.40491,E,1,11,0.85,11106.8,M,45.7,M,,*51
$GPGGA,120551.00,5222.05906,N,00003.44730,E,1,11,0.85,11131.4,M,45.7,M,,*58
$GPGGA,120556.00,5222.05987,N,00003.48272,E,1,11,1.15,11159.6,M,45.7,M,,*5D
$GPGGA,120601.00,5222.06499,N,00003.52628,E,1,11,0.85,11185.4,M,45.7,M,,*56
$GPGGA,120606.00,5222.06800,N,00003.57977,E,1,11,0.85,11207.3,M,45.7,M,,*53
$GPGGA,120611.00,5222.06848,N,00003.62477,E,1,11,0.85,11232.5,M,45.7,M,,*52
$GPGGA,120616.00,5222.07310,N,00003.66362,E,1,11,0.84,11257.4,M,45.7,M,,*56
$GPGGA,120621.00,5222.07779,N,00003.70514,E,1,11,0.93,11281.4,M,45.7,M,,*54
$GPGGA,120626.00,5222.07723,N,00003.74941,E,1,11,0.84,11303.2,M,45.7,M,,*5F
$GPGGA,120631.00,5222.08032,N,00003.79689,E,1,11,0.84,11325.6,M,45.7,M,,*57
$GPGGA,120636.00,5222.08520,N,00003.84528,E,1,11,0.84,11351.4,M,45.7,M,,*5D
$GPGGA,120641.00,5222.08573,N,00003.88762,E,1,11,0.84,11373.2,M,45.7,M,,*5D
$GPGGA,120646.00,5222.09202,N,00003.93975,E,1,11,0.84,11402.4,M,45.7,M,,*5F
$GPGGA,120651.00,5222.10893,N,00003.99115,E,1,11,0.84,11428.4,M,45.7,M,,*5F
$GPGGA,120656.00,5222.11308,N,00004.03547,E,1,11,0.84,11448.5,M,45.7,M,,*50
$GPGGA,120701.00,5222.12056,N,00004.07573,E,1,11,0.91,11471.1,M,45.7,M,,*51
$GPGGA,120706.00,5222.12481,N,00004.12583,E,1,11,0.84,11493.1,M,45.7,M,,*5B
$GPGGA,120711.00,5222.13049,N,00004.17312,E,1,11,0.84,11516.2,M,45.7,M,,*58
$GPGGA,120716.00,5222.13975,N,00004.21523,E,1,11,0.84,11539.2,M,45.7,M,,*55
$GPGGA,120721.00,5222.14473,N,00004.25835,E,1,11,0.84,11562.6,M,45.7,M,,*59
$GPGGA,120726.00,5222.14769,N,00004.30110,E,1,11,0.84,11585.3,M,45.7,M,,*50
$GPGGA,120731.00,5222.15601,N,00004.34481,E,1,11,0.84,11611.1,M,45.7,M,,*5D
$GPGGA,120736.00,5222.16875,N,00004.39431,E,1,11,0.84,11636.2,M,45.7,M,,*54
$GPGGA,120741.00,5222.17502,N,00004.44338,E,1,11,0.84,11661.7,M,45.7,M,,*5B
$GPGGA,120746.00,5222.18939,N,00004.47769,E,1,11,0.84,11683.7,M,45.7,M,,*58
$GPGGA,120751.00,5222.19199,N,00004.52005,E,1,11,0.84,11708.4,M,45.7,M,,*55
$GPGGA,120756.00,5222.19943,N,00004.56532,E,1,11,0.84,11730.9,M,45.7,M,,*5E
$GPGGA,120801.00,5222.20975,N,00004.60649,E,1,11,0.86,11757.5,M,45.7,M,,*59
$GPGGA,120806.00,5222.21610,N,00004.65322,E,1,11,0.91,11783.8,M,45.7,M,,*5C
$GPGGA,120811.00,5222.22377,N,00004.69400,E,1,11,0.84,11809.0,M,45.7,M,,*57
$GPGGA,120816.00,5222.22973,N,00004.72949,E,1,11,0.84,11835.5,M,45.7,M,,*5E
$GPGGA,120821.00,5222.24199,N,00004.76870,E,1,11,0.84,11860.1,M,45.7,M,,*5B
$GPGGA,120826.00,5222.25179,N,00004.80615,E,1,11,0.84,11884.2,M,45.7,M,,*5E
$GPGGA,120831.00,5222.26181,N,00004.84892,E,1,11,0.84,11908.9,M,45.7,M,,*57
$GPGGA,120836.00,5222.27606,N,00004.88684,E,1,11,0.84,11930.3,M,45.7,M,,*5D
$GPGGA,120841.00,5222.28434,N,00004.92390,E,1,11,0.84,11954.3,M,45.7,M,,*58
$GPGGA,120846.00,5222.29163,N,00004.96511,E,1,11,0.84,11977.6,M,45.7,M,,*56
$GPGGA,120851.00,5222.30103,N,00005.01192,E,2,11,0.84,12000.3,M,45.7,M,,0000*52
$GPGGA,120856.00,5222.31256,N,00005.05246,E,2,11,0.84,12022.5,M,45.7,M,,0000*5F
$GPGGA,120901.00,5222.32648,N,00005.09797,E,2,11,0.84,12045.5,M,45.7,M,,0000*50
$GPGGA,120906.00,5222.33781,N,00005.13906,E,2,10,1.16,12067.0,M,45.7,M,,0000*51
$GPGGA,120911.00,5222.34568,N,00005.18153,E,2,11,0.84,12088.9,M,45.7,M,,0000*55
$GPGGA,120916.00,5222.35775,N,00005.22108,E,2,11,0.84,12113.6,M,45.7,M,,0000*56
$GPGGA,120921.00,5222.37117,N,00005.27385,E,2,11,0.84,12132.8,M,45.7,M,,0000*5D
$GPGGA,120926.00,5222.38171,N,00005.31305,E,2,11,0.84,12154.5,M,45.7,M,,0000*57
$GPGGA,120931.00,5222.39043,N,00005.35685,E,2,11,0.84,12177.3,M,45.7,M,,0000*5E
$GPGGA,120936.00,5222.39904,N,00005.40224,E,1,11,0.84,12199.0,M,45.7,M,,*5E
$GPGGA,120941.00,5222.41024,N,00005.44990,E,1,11,0.84,12222.5,M,45.7,M,,*5C
$GPGGA,120946.00,5222.42199,N,00005.49092,E,1,11,0.84,12244.4,M,45.7,M,,*58
$GPGGA,120951.00,5222.43235,N,00005.52732,E,1,11,0.84,12266.7,M,45.7,M,,*5E
$GPGGA,120956.00,5222.44164,N,00005.57470,E,1,11,0.84,12285.2,M,45.7,M,,*51
$GPGGA,121001.00,5222.44938,N,00005.61608,E,1,11,0.84,12308.5,M,45.7,M,,*51
$GPGGA,121006.00,5222.46227,N,00005.65481,E,1,11,0.84,12334.0,M,45.7,M,,*5C
$GPGGA,121011.00,5222.47908,N,00005.69912,E,1,11,0.93,12357.8,M,45.7,M,,*5D
$GPGGA,121016.00,5222.49319,N,00005.74376,E,1,11,0.84,12381.4,M,45.7,M,,*5B
$GPGGA,121021.00,5222.50955,N,00005.78568,E,1,11,0.84,12402.8,M,45.7,M,,*50
$GPGGA,121026.00,5222.52608,N,00005.82768,E,1,11,0.84,12423.3,M,45.7,M,,*5D
$GPGGA,121031.00,5222.54233,N,00005.85803,E,1,11,0.85,12444.1,M,45.7,M,,*56
$GPGGA,121036.00,5222.56289,N,00005.89680,E,1,11,0.84,12465.1,M,45.7,M,,*59
$GPGGA,121041.00,5222.58356,N,00005.92906,E,1,11,0.84,12487.4,M,45.7,M,,*56
$GPGGA,121046.00,5222.59855,N,00005.96161,E,1,11,0.84,12510.5,M,45.7,M,,*5B
$GPGGA,121051.00,5222.61416,N,00006.00309,E,1,11,0.84,12534.1,M,45.7,M,,*5F
$GPGGA,121056.00,5222.63200,N,00006.04618,E,1,11,0.84,12556.9,M,45.7,M,,*56
$GPGGA,121101.00,5222.65045,N,00006.08444,E,1,11,0.84,12579.0,M,45.7,M,,*53
$GPGGA,121106.00,5222.67260,N,00006.12644,E,1,10,0.90,12614.6,M,45.7,M,,*50
$GPGGA,121111.00,5222.69081,N,00006.19359,E,1,11,0.89,12641.9,M,45.7,M,,*51
$GPGGA,121116.00,5222.70751,N,00006.23272,E,1,11,0.83,12675.5,M,45.7,M,,*54
$GPGGA,121121.00,5222.71154,N,00006.27555,E,1,11,0.83,12702.8,M,45.7,M,,*58
$GPGGA,121126.00,5222.71729,N,00006.31153,E,1,11,0.83,12728.5,M,45.7,M,,*53
$GPGGA,121131.00,5222.72304,N,00006.36830,E,1,11,0.83,12755.7,M,45.7,M,,*5E
$GPGGA,121136.00,5222.73501,N,00006.42219,E,1,11,0.91,12777.6,M,45.7,M,,*5B
$GPGGA,121141.00,5222.74349,N,00006.47998,E,1,11,0.83,12798.6,M,45.7,M,,*53
$GPGGA,121146.00,5222.75467,N,00006.54426,E,1,11,0.83,12822.2,M,45.7,M,,*5E
$GPGGA,121151.00,5222.76666,N,00006.61101,E,1,11,0.83,12847.1,M,45.7,M,,*5E
$GPGGA,121156.00,5222.77864,N,00006.66803,E,1,11,0.83,12868.0,M,45.7,M,,*54
$GPGGA,121201.00,5222.78749,N,00006.71721,E,1,11,0.83,12890.0,M,45.7,M,,*54
$GPGGA,121206.00,5222.79506,N,00006.76501,E,1,11,0.83,12911.2,M,45.7,M,,*56
$GPGGA,121211.00,5222.80438,N,00006.81120,E,1,11,0.83,12939.6,M,45.7,M,,*5B
$GPGGA,121216.00,5222.83017,N,00006.84612,E,1,11,0.83,12972.9,M,45.7,M,,*55
$GPGGA,121221.00,5222.85587,N,00006.87964,E,1,11,0.83,13000.9,M,45.7,M,,*5B
$GPGGA,121226.00,5222.88077,N,00006.91976,E,1,11,0.83,13028.6,M,45.7,M,,*5A
$GPGGA,121231.00,5222.90151,N,00006.96448,E,1,11,0.83,13049.7,M,45.7,M,,*51
$GPGGA,121236.00,5222.92127,N,00006.99012,E,1,11,0.83,13070.9,M,45.7,M,,*55
$GPGGA,121241.00,5222.94579,N,00007.01626,E,1,11,0.88,13093.8,M,45.7,M,,*5A
$GPGGA,121246.00,5222.96868,N,00007.04592,E,1,11,0.83,13117.8,M,45.7,M,,*5D
$GPGGA,121251.00,5222.98691,N,00007.06896,E,1,11,0.83,13139.9,M,45.7,M,,*5B
$GPGGA,121256.00,5223.00604,N,00007.09901,E,1,11,0.83,13164.8,M,45.7,M,,*59
$GPGGA,121301.00,5223.02821,N,00007.13122,E,1,11,0.83,13188.4,M,45.7,M,,*5D
$GPGGA,121306.00,5223.05036,N,00007.16378,E,1,11,0.84,13211.5,M,45.7,M,,*5E
$GPGGA,121311.00,5223.07013,N,00007.19830,E,1,11,0.83,13235.0,M,45.7,M,,*51
$GPGGA,121316.00,5223.08922,N,00007.23864,E,1,11,0.83,13256.6,M,45.7,M,,*59
$GPGGA,121321.00,5223.10759,N,00007.27492,E,1,11,0.83,13280.6,M,45.7,M,,*5C
$GPGGA,121326.00,5223.12765,N,00007.31482,E,1,11,0.95,13304.6,M,45.7,M,,*5A
$GPGGA,121331.00,5223.15027,N,00007.34933,E,1,11,0.83,13326.9,M,45.7,M,,*50
$GPGGA,121336.00,5223.16586,N,00007.38550,E,1,11,0.88,13349.9,M,45.7,M,,*5D
$GPGGA,121341.00,5223.18427,N,00007.42702,E,1,11,0.83,13374.0,M,45.7,M,,*5D
$GPGGA,121346.00,5223.20665,N,00007.47025,E,1,11,0.83,13397.9,M,45.7,M,,*56
$GPGGA,121351.00,5223.22849,N,00007.51270,E,1,11,0.83,13420.9,M,45.7,M,,*5C
$GPGGA,121356.00,5223.24564,N,00007.55401,E,1,11,0.83,13446.6,M,45.7,M,,*54
$GPGGA,121401.00,5223.25967,N,00007.59632,E,1,11,0.83,13468.9,M,45.7,M,,*52
$GPGGA,121406.00,5223.27479,N,00007.64024,E,1,11,0.83,13489.4,M,45.7,M,,*58
$GPGGA,121411.00,5223.29124,N,00007.69019,E,1,11,0.83,13511.3,M,45.7,M,,*59
$GPGGA,121416.00,5223.30605,N,00007.73194,E,1,11,0.83,13532.4,M,45.7,M,,*5B
$GPGGA,121421.00,5223.32539,N,00007.77817,E,1,11,0.83,13554.3,M,45.7,M,,*50
$GPGGA,121426.00,5223.34147,N,00007.83020,E,1,11,0.83,13578.0,M,45.7,M,,*56
$GPGGA,121431.00,5223.35777,N,00007.87363,E,1,11,0.83,13601.3,M,45.7,M,,*5A
$GPGGA,121436.00,5223.37730,N,00007.91447,E,1,11,0.83,13623.5,M,45.7,M,,*5C
$GPGGA,121441.00,5223.40102,N,00007.95937,E,1,11,0.94,13644.9,M,45.7,M,,*5E
$GPGGA,121446.00,5223.42212,N,00008.00118,E,1,11,0.83,13668.7,M,45.7,M,,*59
$GPGGA,121451.00,5223.44027,N,00008.03928,E,1,11,0.83,13690.7,M,45.7,M,,*52
$GPGGA,121456.00,5223.45947,N,00008.07339,E,1,11,0.90,13713.4,M,45.7,M,,*5E
$GPGGA,121501.00,5223.48496,N,00008.11139,E,1,11,0.84,13735.8,M,45.7,M,,*59
$GPGGA,121506.00,5223.50605,N,00008.15596,E,1,11,0.82,13758.3,M,45.7,M,,*5C
$GPGGA,121511.00,5223.52505,N,00008.19106,E,1,11,0.82,13779.5,M,45.7,M,,*5F
$GPGGA,121516.00,5223.54205,N,00008.22631,E,1,11,0.82,13800.1,M,45.7,M,,*57
$GPGGA,121521.00,5223.56331,N,00008.26235,E,1,11,0.82,13821.6,M,45.7,M,,*57
$GPGGA,121526.00,5223.58713,N,00008.30010,E,1,11,0.82,13841.6,M,45.7,M,,*5E
$GPGGA,121531.00,5223.60669,N,00008.33202,E,1,11,0.82,13860.5,M,45.7,M,,*5D
$GPGGA,121536.00,5223.62281,N,00008.37166,E,1,11,0.87,13882.1,M,45.7,M,,*52
$GPGGA,121541.00,5223.63790,N,00008.41725,E,1,11,0.82,13906.4,M,45.7,M,,*5B
$GPGGA,121546.00,5223.65466,N,00008.45791,E,1,11,0.82,13928.3,M,45.7,M,,*50
$GPGGA,121551.00,5223.66931,N,00008.49356,E,1,11,0.82,13950.1,M,45.7,M,,*54
$GPGGA,121556.00,5223.67981,N,00008.53438,E,1,11,0.82,13971.8,M,45.7,M,,*57
$GPGGA,121601.00,5223.69462,N,00008.57884,E,1,11,0.82,13997.0,M,45.7,M,,*57
$GPGGA,121606.00,5223.71104,N,00008.61693,E,1,11,0.82,14019.7,M,45.7,M,,*5E
$GPGGA,121611.00,5223.72738,N,00008.64672,E,1,11,0.82,14040.3,M,45.7,M,,*50
$GPGGA,121616.00,5223.74183,N,00008.68179,E,1,11,0.82,14061.9,M,45.7,M,,*5E
$GPGGA,121621.00,5223.75513,N,00008.71495,E,1,11,0.82,14082.0,M,45.7,M,,*5D
$GPGGA,121626.00,5223.76828,N,00008.74775,E,1,10,1.13,14102.5,M,45.7,M,,*50
$GPGGA,121631.00,5223.79041,N,00008.78205,E,1,11,0.82,14124.0,M,45.7,M,,*59
$GPGGA,121636.00,5223.80190,N,00008.80932,E,1,11,0.82,14145.2,M,45.7,M,,*58
$GPGGA,121641.00,5223.81411,N,00008.84791,E,1,11,0.82,14168.2,M,45.7,M,,*59
$GPGGA,121646.00,5223.83582,N,00008.88700,E,1,11,0.82,14191.2,M,45.7,M,,*55
$GPGGA,121651.00,5223.85443,N,00008.91999,E,1,11,0.87,14214.9,M,45.7,M,,*5F
$GPGGA,121656.00,5223.87005,N,00008.95482,E,1,11,0.82,14236.3,M,45.7,M,,*50
$GPGGA,121701.00,5223.88444,N,00008.99747,E,1,11,0.82,14258.5,M,45.7,M,,*55
$GPGGA,121706.00,5223.90048,N,00009.03065,E,1,11,0.82,14281.6,M,45.7,M,,*51
$GPGGA,121711.00,5223.91485,N,00009.06053,E,1,11,0.87,14301.4,M,45.7,M,,*5D
$GPGGA,121716.00,5223.93024,N,00009.09022,E,1,11,0.82,14323.3,M,45.7,M,,*5C
$GPGGA,121721.00,5223.94750,N,00009.12187,E,1,11,0.82,14345.9,M,45.7,M,,*55
$GPGGA,121726.00,5223.96398,N,00009.15026,E,1,11,0.82,14368.2,M,45.7,M,,*59
$GPGGA,121731.00,5223.98232,N,00009.17616,E,1,11,0.82,14391.9,M,45.7,M,,*5A
$GPGGA,121736.00,5224.00394,N,00009.20368,E,1,11,0.82,14415.3,M,45.7,M,,*5F
$GPGGA,121741.00,5224.02722,N,00009.22689,E,1,11,0.82,14439.9,M,45.7,M,,*58
$GPGGA,121746.00,5224.04970,N,00009.25163,E,1,11,0.82,14462.3,M,45.7,M,,*50
$GPGGA,121751.00,5224.06879,N,00009.27612,E,1,11,0.82,14483.2,M,45.7,M,,*51
$GPGGA,121756.00,5224.08790,N,00009.30399,E,1,11,0.82,14505.7,M,45.7,M,,*5A
$GPGGA,121801.00,5224.11127,N,00009.33217,E,1,11,0.82,14527.7,M,45.7,M,,*51
$GPGGA,121806.00,5224.13427,N,00009.35909,E,1,11,0.82,14551.2,M,45.7,M,,*57
$GPGGA,121811.00,5224.15417,N,00009.39155,E,1,11,0.82,14574.2,M,45.7,M,,*5E
$GPGGA,121816.00,5224.17163,N,00009.41932,E,1,11,0.82,14597.1,M,45.7,M,,*55
$GPGGA,121821.00,5224.19137,N,00009.44862,E,1,11,0.82,14620.6,M,45.7,M,,*57
$GPGGA,121826.00,5224.21108,N,00009.47701,E,1,11,0.82,14642.5,M,45.7,M,,*59
$GPGGA,121831.00,5224.23440,N,00009.50604,E,1,11,0.82,14665.6,M,45.7,M,,*50
$GPGGA,121836.00,5224.25324,N,00009.52903,E,1,11,0.82,14688.8,M,45.7,M,,*53
$GPGGA,121841.00,5224.26987,N,00009.55186,E,1,11,0.81,14711.6,M,45.7,M,,*5D
$GPGGA,121846.00,5224.29367,N,00009.58098,E,1,11,0.81,14733.2,M,45.7,M,,*56
$GPGGA,121851.00,5224.31412,N,00009.61564,E,1,11,0.81,14756.3,M,45.7,M,,*52
$GPGGA,121856.00,5224.33273,N,00009.64411,E,1,11,0.81,14779.3,M,45.7,M,,*5D
$GPGGA,121901.00,5224.34950,N,00009.67443,E,1,11,0.81,14802.1,M,45.7,M,,*56
$GPGGA,121906.00,5224.36691,N,00009.71059,E,1,11,0.81,14824.4,M,45.7,M,,*58
$GPGGA,121911.00,5224.38788,N,00009.75114,E,1,11,0.81,14844.9,M,45.7,M,,*5E
$GPGGA,121916.00,5224.40708,N,00009.78661,E,1,11,0.81,14868.1,M,45.7,M,,*50
$GPGGA,121921.00,5224.42781,N,00009.82044,E,1,11,0.81,14891.7,M,45.7,M,,*53
$GPGGA,121926.00,5224.45115,N,00009.85406,E,1,11,0.81,14915.1,M,45.7,M,,*56
$GPGGA,121931.00,5224.47259,N,00009.89418,E,1,11,0.81,14938.0,M,45.7,M,,*54
$GPGGA,121936.00,5224.49393,N,00009.92884,E,1,11,0.81,14960.4,M,45.7,M,,*50
$GPGGA,121941.00,5224.51659,N,00009.95879,E,1,11,0.81,14982.0,M,45.7,M,,*57
$GPGGA,121946.00,5224.53937,N,00009.98848,E,1,11,0.89,15005.1,M,45.7,M,,*54
$GPGGA,121951.00,5224.55887,N,00010.01977,E,1,11,0.81,15026.1,M,45.7,M,,*52
$GPGGA,121956.00,5224.57922,N,00010.05566,E,1,11,0.81,15049.4,M,45.7,M,,*5D
$GPGGA,122001.00,5224.59756,N,00010.09384,E,1,11,0.81,15071.1,M,45.7,M,,*5E
$GPGGA,122006.00,5224.62026,N,00010.12790,E,1,11,0.81,15093.6,M,45.7,M,,*51
$GPGGA,122011.00,5224.64088,N,00010.16006,E,1,11,0.81,15115.7,M,45.7,M,,*57
$GPGGA,122016.00,5224.65697,N,00010.19869,E,1,11,0.81,15138.3,M,45.7,M,,*5C
$GPGGA,122021.00,5224.67368,N,00010.23838,E,1,11,0.81,15161.1,M,45.7,M,,*5C
$GPGGA,122026.00,5224.69249,N,00010.27565,E,1,11,0.81,15182.2,M,45.7,M,,*58
$GPGGA,122031.00,5224.71183,N,00010.30873,E,1,11,0.81,15203.5,M,45.7,M,,*53
$GPGGA,122036.00,5224.73290,N,00010.33802,E,1,11,0.81,15227.7,M,45.7,M,,*56
$GPGGA,122041.00,5224.74794,N,00010.37925,E,1,11,0.81,15250.1,M,45.7,M,,*56
$GPGGA,122046.00,5224.76140,N,00010.41533,E,1,11,0.81,15273.1,M,45.7,M,,*57
$GPGGA,122051.00,5224.77612,N,00010.45049,E,1,11,0.81,15295.7,M,45.7,M,,*52
$GPGGA,122056.00,5224.78759,N,00010.48344,E,1,11,0.81,15317.6,M,45.7,M,,*5D
$GPGGA,122101.00,5224.79321,N,00010.51879,E,1,11,0.81,15339.9,M,45.7,M,,*5A
$GPGGA,122106.00,5224.80048,N,00010.54928,E,1,11,0.81,15362.1,M,45.7,M,,*51
$GPGGA,122111.00,5224.80429,N,00010.57699,E,1,11,0.81,15384.3,M,45.7,M,,*58
$GPGGA,122116.00,5224.81146,N,00010.59906,E,1,11,0.81,15406.5,M,45.7,M,,*5E
$GPGGA,122121.00,5224.81576,N,00010.62341,E,1,11,0.81,15431.1,M,45.7,M,,*5C
$GPGGA,122126.00,5224.81703,N,00010.65428,E,1,11,0.81,15452.6,M,45.7,M,,*56
$GPGGA,122131.00,5224.81719,N,00010.68724,E,1,11,0.81,15476.0,M,45.7,M,,*59
$GPGGA,122136.00,5224.82149,N,00010.71477,E,1,11,0.86,15498.3,M,45.7,M,,*57
$GPGGA,122141.00,5224.82551,N,00010.74007,E,1,11,0.81,15521.1,M,45.7,M,,*5A
$GPGGA,122146.00,5224.82779,N,00010.76716,E,1,11,0.81,15543.1,M,45.7,M,,*54
$GPGGA,122151.00,5224.82674,N,00010.79592,E,1,11,0.81,15567.1,M,45.7,M,,*59
$GPGGA,122156.00,5224.83214,N,00010.82211,E,1,11,0.81,15588.5,M,45.7,M,,*50
$GPGGA,122201.00,5224.83710,N,00010.84661,E,1,11,0.81,15611.2,M,45.7,M,,*51
$GPGGA,122206.00,5224.83974,N,00010.86679,E,1,11,0.88,15635.2,M,45.7,M,,*5E
$GPGGA,122211.00,5224.83876,N,00010.89378,E,1,11,0.81,15659.9,M,45.7,M,,*58
$GPGGA,122216.00,5224.84463,N,00010.92285,E,1,11,0.81,15683.6,M,45.7,M,,*51
$GPGGA,122221.00,5224.85201,N,00010.94778,E,1,11,0.80,15707.4,M,45.7,M,,*59
$GPGGA,122226.00,5224.85330,N,00010.97546,E,1,11,0.80,15732.5,M,45.7,M,,*56
$GPGGA,122231.00,5224.85324,N,00011.00971,E,1,11,0.80,15755.3,M,45.7,M,,*55
$GPGGA,122236.00,5224.85475,N,00011.03842,E,1,11,0.80,15778.6,M,45.7,M,,*59
$GPGGA,122241.00,5224.85715,N,00011.06728,E,1,11,0.80,15802.3,M,45.7,M,,*5D
$GPGGA,122246.00,5224.86008,N,00011.09463,E,1,11,0.80,15825.6,M,45.7,M,,*51
$GPGGA,122251.00,5224.85949,N,00011.12298,E,1,11,0.80,15848.9,M,45.7,M,,*54
$GPGGA,122256.00,5224.85636,N,00011.15184,E,1,11,0.80,15872.7,M,45.7,M,,*5A
$GPGGA,122301.00,5224.86177,N,00011.17946,E,1,11,0.80,15895.3,M,45.7,M,,*51
$GPGGA,122306.00,5224.86837,N,00011.19788,E,1,11,0.84,15919.2,M,45.7,M,,*59
$GPGGA,122311.00,5224.87110,N,00011.22714,E,1,11,0.80,15942.7,M,45.7,M,,*50
$GPGGA,122316.00,5224.87682,N,00011.25418,E,1,11,0.80,15968.4,M,45.7,M,,*58
$GPGGA,122321.00,5224.88533,N,00011.27484,E,1,11,0.80,15991.4,M,45.7,M,,*5B
$GPGGA,122326.00,5224.89435,N,00011.29901,E,1,11,0.80,16015.9,M,45.7,M,,*5F
$GPGGA,122331.00,5224.90234,N,00011.32478,E,1,11,0.80,16038.6,M,45.7,M,,*5F
$GPGGA,122336.00,5224.91026,N,00011.35789,E,1,11,0.80,16061.4,M,45.7,M,,*5C
$GPGGA,122341.00,5224.91920,N,00011.39403,E,1,11,0.80,16085.2,M,45.7,M,,*52
$GPGGA,122346.00,5224.93061,N,00011.42363,E,1,11,0.84,16110.0,M,45.7,M,,*5D
$GPGGA,122351.00,5224.93847,N,00011.45285,E,1,11,0.80,16134.1,M,45.7,M,,*5A
$GPGGA,122356.00,5224.94272,N,00011.48760,E,1,11,0.80,16157.5,M,45.7,M,,*54
$GPGGA,122401.00,5224.95026,N,00011.51927,E,1,11,0.80,16180.8,M,45.7,M,,*51
$GPGGA,122406.00,5224.96306,N,00011.55057,E,1,11,0.80,16204.9,M,45.7,M,,*50
$GPGGA,122411.00,5224.96782,N,00011.57861,E,1,11,0.80,16227.7,M,45.7,M,,*5E
$GPGGA,122416.00,5224.96867,N,00011.60690,E,1,11,0.80,16250.4,M,45.7,M,,*5A
$GPGGA,122421.00,5224.97265,N,00011.63965,E,1,11,0.80,16272.2,M,45.7,M,,*57
$GPGGA,122426.00,5224.97771,N,00011.67577,E,1,11,0.80,16296.6,M,45.7,M,,*55
$GPGGA,122431.00,5224.98331,N,00011.69908,E,1,11,0.80,16319.8,M,45.7,M,,*5E
$GPGGA,122436.00,5224.98924,N,00011.71580,E,1,11,0.80,16344.8,M,45.7,M,,*5A
$GPGGA,122441.00,5225.00157,N,00011.73938,E,1,11,0.80,16367.6,M,45.7,M,,*54
$GPGGA,122446.00,5225.01290,N,00011.76766,E,1,11,0.80,16392.3,M,45.7,M,,*55
$GPGGA,122451.00,5225.02102,N,00011.78621,E,1,11,0.80,16414.7,M,45.7,M,,*59
$GPGGA,122456.00,5225.02975,N,00011.80317,E,1,11,0.80,16437.6,M,45.7,M,,*51
$GPGGA,122501.00,5225.04305,N,00011.82925,E,1,11,0.80,16462.2,M,45.7,M,,*54
$GPGGA,122506.00,5225.05507,N,00011.85727,E,1,11,0.80,16486.1,M,45.7,M,,*54
$GPGGA,122511.00,5225.05982,N,00011.88157,E,1,11,0.80,16509.3,M,45.7,M,,*5B
$GPGGA,122516.00,5225.07266,N,00011.90621,E,1,11,0.80,16532.8,M,45.7,M,,*53
$GPGGA,122521.00,5225.08707,N,00011.92962,E,1,11,0.80,16556.4,M,45.7,M,,*5E
$GPGGA,122526.00,5225.09725,N,00011.95682,E,1,11,0.85,16579.1,M,45.7,M,,*53
$GPGGA,122531.00,5225.10671,N,00011.98942,E,1,11,0.80,16600.8,M,45.7,M,,*52
$GPGGA,122536.00,5225.11951,N,00012.01795,E,1,11,0.80,16624.5,M,45.7,M,,*55
$GPGGA,122541.00,5225.13238,N,00012.04092,E,1,11,0.82,16649.4,M,45.7,M,,*5E
$GPGGA,122546.00,5225.14464,N,00012.07772,E,1,11,0.80,16671.0,M,45.7,M,,*56
$GPGGA,122551.00,5225.15527,N,00012.11984,E,1,11,0.80,16696.5,M,45.7,M,,*5B
$GPGGA,122556.00,5225.16575,N,00012.14541,E,1,11,0.80,16719.2,M,45.7,M,,*59
$GPGGA,122601.00,5225.17118,N,00012.17207,E,1,11,0.80,16743.4,M,45.7,M,,*59
$GPGGA,122606.00,5225.18225,N,00012.20638,E,1,11,0.80,16767.3,M,45.7,M,,*51
$GPGGA,122611.00,5225.19038,N,00012.24771,E,1,11,0.79,16793.4,M,45.7,M,,*5A
$GPGGA,122616.00,5225.19390,N,00012.27986,E,1,11,0.79,16815.9,M,45.7,M,,*55
$GPGGA,122621.00,5225.19789,N,00012.32001,E,1,11,0.79,16840.0,M,45.7,M,,*56
$GPGGA,122626.00,5225.20938,N,00012.35913,E,1,11,0.79,16864.2,M,45.7,M,,*56
$GPGGA,122631.00,5225.21590,N,00012.39219,E,1,11,0.79,16889.9,M,45.7,M,,*5A
$GPGGA,122636.00,5225.21502,N,00012.41936,E,1,11,0.79,16915.4,M,45.7,M,,*56
$GPGGA,122641.00,5225.22453,N,00012.44248,E,1,11,0.79,16939.4,M,45.7,M,,*59
$GPGGA,122646.00,5225.22874,N,00012.46723,E,1,11,0.79,16964.1,M,45.7,M,,*50
$GPGGA,122651.00,5225.22784,N,00012.49942,E,1,11,0.79,16986.9,M,45.7,M,,*54
$GPGGA,122656.00,5225.22992,N,00012.53374,E,1,11,0.79,17011.3,M,45.7,M,,*52
$GPGGA,122701.00,5225.23327,N,00012.56265,E,1,11,0.79,17033.8,M,45.7,M,,*5B
$GPGGA,122706.00,5225.23670,N,00012.59030,E,1,11,0.79,17057.7,M,45.7,M,,*5B
$GPGGA,122711.00,5225.23545,N,00012.62051,E,1,11,0.79,17079.9,M,45.7,M,,*55
$GPGGA,122716.00,5225.23253,N,00012.65251,E,1,11,0.87,17104.3,M,45.7,M,,*57
$GPGGA,122721.00,5225.23817,N,00012.67582,E,1,11,0.79,17126.5,M,45.7,M,,*55
$GPGGA,122726.00,5225.24012,N,00012.69996,E,1,11,0.79,17149.8,M,45.7,M,,*5B
$GPGGA,122731.00,5225.23971,N,00012.72861,E,1,11,0.79,17173.6,M,45.7,M,,*52
$GPGGA,122736.00,5225.23887,N,00012.75704,E,1,11,0.79,17199.0,M,45.7,M,,*54
$GPGGA,122741.00,5225.24303,N,00012.78539,E,1,11,0.79,17221.4,M,45.7,M,,*51
$GPGGA,122746.00,5225.24775,N,00012.81438,E,1,11,0.79,17247.3,M,45.7,M,,*52
$GPGGA,122751.00,5225.24395,N,00012.84761,E,1,11,0.79,17270.1,M,45.7,M,,*52
$GPGGA,122756.00,5225.24153,N,00012.87750,E,1,11,0.79,17295.1,M,45.7,M,,*57
$GPGGA,122801.00,5225.24618,N,00012.90186,E,1,11,0.79,17318.3,M,45.7,M,,*5F
$GPGGA,122806.00,5225.24370,N,00012.92435,E,1,11,0.79,17343.4,M,45.7,M,,*55
$GPGGA,122811.00,5225.23782,N,00012.94562,E,1,11,0.79,17367.5,M,45.7,M,,*5F
$GPGGA,122816.00,5225.23726,N,00012.96842,E,1,11,0.79,17391.7,M,45.7,M,,*50
$GPGGA,122821.00,5225.24355,N,00012.98839,E,1,11,0.88,17415.7,M,45.7,M,,*54
$GPGGA,122826.00,5225.24061,N,00013.00639,E,1,11,0.79,17439.9,M,45.7,M,,*57
$GPGGA,122831.00,5225.23962,N,00013.01297,E,1,11,0.79,17462.8,M,45.7,M,,*52
$GPGGA,122836.00,5225.24039,N,00013.03070,E,1,11,0.79,17482.9,M,45.7,M,,*53
$GPGGA,122841.00,5225.24177,N,00013.04172,E,1,11,0.79,17507.1,M,45.7,M,,*58
$GPGGA,122846.00,5225.24623,N,00013.04678,E,1,11,0.79,17523.4,M,45.7,M,,*57
$GPGGA,122851.00,5225.24371,N,00013.05183,E,1,11,0.79,17532.0,M,45.7,M,,*55
$GPGGA,122856.00,5225.23541,N,00013.05424,E,1,11,1.00,17552.4,M,45.7,M,,*55
$GPGGA,122901.00,5225.23407,N,00013.05940,E,1,11,0.79,17586.7,M,45.7,M,,*5F
$GPGGA,122906.00,5225.23137,N,00013.06069,E,1,11,0.79,17616.0,M,45.7,M,,*52
$GPGGA,122911.00,5225.22310,N,00013.06117,E,1,11,0.79,17641.1,M,45.7,M,,*59
$GPGGA,122916.00,5225.21307,N,00013.06345,E,1,11,0.79,17666.2,M,45.7,M,,*58
$GPGGA,122921.00,5225.20551,N,00013.07856,E,1,11,0.79,17689.2,M,45.7,M,,*51
$GPGGA,122926.00,5225.19746,N,00013.08356,E,1,11,0.79,17715.5,M,45.7,M,,*5F
$GPGGA,122931.00,5225.18788,N,00013.08513,E,1,11,0.79,17739.8,M,45.7,M,,*5E
$GPGGA,122936.00,5225.17343,N,00013.09816,E,1,11,0.79,17764.0,M,45.7,M,,*5C
$GPGGA,122941.00,5225.15390,N,00013.11000,E,1,11,0.79,17788.9,M,45.7,M,,*5D
$GPGGA,122946.00,5225.14122,N,00013.11685,E,1,11,0.79,17813.0,M,45.7,M,,*5F
$GPGGA,122951.00,5225.12954,N,00013.12603,E,1,11,0.79,17839.1,M,45.7,M,,*52
$GPGGA,122956.00,5225.11053,N,00013.13027,E,1,11,0.79,17862.6,M,45.7,M,,*50
$GPGGA,123001.00,5225.09555,N,00013.13571,E,1,11,0.79,17886.4,M,45.7,M,,*5E
$GPGGA,123006.00,5225.08792,N,00013.14740,E,1,11,0.79,17910.1,M,45.7,M,,*5D
$GPGGA,123011.00,5225.07565,N,00013.15136,E,1,11,0.79,17934.8,M,45.7,M,,*57
$GPGGA,123016.00,5225.06299,N,00013.15070,E,1,11,0.79,17959.7,M,45.7,M,,*52
$GPGGA,123021.00,5225.05636,N,00013.15858,E,1,11,0.79,17982.9,M,45.7,M,,*5E
$GPGGA,123026.00,5225.04997,N,00013.16979,E,1,11,0.86,18008.0,M,45.7,M,,*50
$GPGGA,123031.00,5225.04219,N,00013.16511,E,1,11,0.80,18031.1,M,45.7,M,,*54
$GPGGA,123036.00,5225.03477,N,00013.16343,E,1,12,0.78,18055.7,M,45.7,M,,*5B
$GPGGA,123041.00,5225.02758,N,00013.17034,E,1,12,0.78,18079.1,M,45.7,M,,*5E
$GPGGA,123046.00,5225.02287,N,00013.17453,E,1,12,0.78,18102.4,M,45.7,M,,*53
$GPGGA,123051.00,5225.02118,N,00013.18179,E,1,12,0.87,18127.3,M,45.7,M,,*52
$GPGGA,123056.00,5225.01088,N,00013.18866,E,1,12,0.78,18149.9,M,45.7,M,,*5B
$GPGGA,123101.00,5224.99680,N,00013.20023,E,1,12,0.78,18173.6,M,45.7,M,,*52
$GPGGA,123106.00,5224.98747,N,00013.21907,E,1,12,0.78,18196.6,M,45.7,M,,*5B
$GPGGA,123111.00,5224.97676,N,00013.23477,E,1,12,0.78,18220.6,M,45.7,M,,*57
$GPGGA,123116.00,5224.96398,N,00013.23689,E,1,12,0.89,18245.0,M,45.7,M,,*5C
$GPGGA,123121.00,5224.95120,N,00013.24002,E,1,12,0.78,18271.4,M,45.7,M,,*55
$GPGGA,123126.00,5224.93324,N,00013.24541,E,1,12,0.78,18296.0,M,45.7,M,,*5D
$GPGGA,123131.00,5224.91955,N,00013.23852,E,1,12,0.78,18321.2,M,45.7,M,,*52
$GPGGA,123136.00,5224.90676,N,00013.22970,E,1,12,0.78,18344.9,M,45.7,M,,*52
$GPGGA,123141.00,5224.88826,N,00013.22334,E,1,12,0.78,18370.1,M,45.7,M,,*55
$GPGGA,123146.00,5224.86788,N,00013.21352,E,1,12,0.78,18395.9,M,45.7,M,,*57
$GPGGA,123151.00,5224.85865,N,00013.20748,E,1,12,0.73,18418.9,M,45.7,M,,*59
$GPGGA,123156.00,5224.84596,N,00013.20091,E,1,12,0.73,18442.1,M,45.7,M,,*5A
$GPGGA,123201.00,5224.83133,N,00013.18609,E,1,12,0.73,18467.7,M,45.7,M,,*5A
$GPGGA,123206.00,5224.81930,N,00013.18498,E,1,12,0.73,18492.1,M,45.7,M,,*52
$GPGGA,123211.00,5224.80932,N,00013.18431,E,1,12,0.73,18518.4,M,45.7,M,,*52
$GPGGA,123216.00,5224.80327,N,00013.17136,E,1,12,0.73,18540.4,M,45.7,M,,*5B
$GPGGA,123221.00,5224.79425,N,00013.16844,E,1,12,0.73,18565.6,M,45.7,M,,*54
$GPGGA,123226.00,5224.78271,N,00013.16397,E,1,12,0.73,18590.6,M,45.7,M,,*5A
$GPGGA,123231.00,5224.77858,N,00013.16029,E,1,12,0.73,18612.0,M,45.7,M,,*5B
$GPGGA,123236.00,5224.77602,N,00013.15867,E,1,12,0.73,18635.6,M,45.7,M,,*5F
$GPGGA,123241.00,5224.76600,N,00013.15107,E,1,12,0.73,18660.7,M,45.7,M,,*52
$GPGGA,123246.00,5224.76107,N,00013.13972,E,1,12,0.73,18686.9,M,45.7,M,,*5F
$GPGGA,123251.00,5224.75904,N,00013.14396,E,1,12,0.80,18713.3,M,45.7,M,,*5D
$GPGGA,123256.00,5224.75649,N,00013.13631,E,1,12,0.75,18738.9,M,45.7,M,,*5A
$GPGGA,123301.00,5224.75333,N,00013.12787,E,1,12,0.75,18763.1,M,45.7,M,,*5A
$GPGGA,123306.00,5224.74800,N,00013.13978,E,1,12,0.75,18787.7,M,45.7,M,,*54
$GPGGA,123311.00,5224.74466,N,00013.14855,E,1,12,0.75,18814.2,M,45.7,M,,*57
$GPGGA,123316.00,5224.74228,N,00013.15056,E,1,12,0.75,18837.8,M,45.7,M,,*5D
$GPGGA,123321.00,5224.73734,N,00013.15188,E,1,12,0.75,18861.4,M,45.7,M,,*5B
$GPGGA,123326.00,5224.72604,N,00013.15452,E,1,12,0.75,18886.8,M,45.7,M,,*58
$GPGGA,123331.00,5224.71997,N,00013.15685,E,1,12,0.75,18910.5,M,45.7,M,,*53
$GPGGA,123336.00,5224.71592,N,00013.16042,E,1,12,0.75,18935.8,M,45.7,M,,*59
$GPGGA,123341.00,5224.70337,N,00013.15363,E,1,12,0.75,18962.0,M,45.7,M,,*58
$GPGGA,123346.00,5224.69248,N,00013.14540,E,1,12,0.75,18986.6,M,45.7,M,,*54
$GPGGA,123351.00,5224.68333,N,00013.15068,E,1,12,0.75,19012.9,M,45.7,M,,*5A
$GPGGA,123356.00,5224.67516,N,00013.14881,E,1,12,0.75,19037.4,M,45.7,M,,*57
$GPGGA,123401.00,5224.66865,N,00013.13865,E,1,12,0.75,19063.7,M,45.7,M,,*55
$GPGGA,123406.00,5224.66199,N,00013.14258,E,1,12,0.75,19088.9,M,45.7,M,,*50
$GPGGA,123411.00,5224.65029,N,00013.14584,E,1,12,0.75,19114.1,M,45.7,M,,*55
$GPGGA,123416.00,5224.64770,N,00013.14368,E,1,12,0.75,19140.0,M,45.7,M,,*5C
$GPGGA,123421.00,5224.64337,N,00013.14728,E,1,12,0.82,19164.1,M,45.7,M,,*50
$GPGGA,123426.00,5224.62813,N,00013.15146,E,1,12,0.75,19187.8,M,45.7,M,,*5F
$GPGGA,123431.00,5224.62281,N,00013.16115,E,1,12,0.75,19212.6,M,45.7,M,,*5C
$GPGGA,123436.00,5224.61893,N,00013.17769,E,1,12,0.75,19238.1,M,45.7,M,,*52
$GPGGA,123441.00,5224.61340,N,00013.18615,E,1,12,0.75,19263.5,M,45.7,M,,*58
$GPGGA,123446.00,5224.60424,N,00013.18930,E,1,12,0.75,19288.4,M,45.7,M,,*57
$GPGGA,123451.00,5224.58966,N,00013.19950,E,1,12,0.75,19313.5,M,45.7,M,,*54
$GPGGA,123456.00,5224.58002,N,00013.20550,E,1,12,0.75,19338.5,M,45.7,M,,*57
$GPGGA,123501.00,5224.57487,N,00013.20753,E,1,12,0.75,19363.6,M,45.7,M,,*5E
$GPGGA,123506.00,5224.56344,N,00013.20839,E,1,12,0.75,19387.7,M,45.7,M,,*58
$GPGGA,123511.00,5224.54579,N,00013.20584,E,1,12,0.75,19413.0,M,45.7,M,,*52
$GPGGA,123516.00,5224.53826,N,00013.20430,E,1,12,0.75,19438.1,M,45.7,M,,*53
