$GPGGA,203931.000,5215.1039,N,00005.4828,W,1,05,02.4,56.0,M,45.0,M,,*4E
$GPGGA,203932.000,5215.1017,N,00005.4710,W,1,05,02.4,60.4,M,45.0,M,,*44
$GPGGA,203933.000,5215.0994,N,00005.4592,W,1,05,02.4,64.7,M,45.0,M,,*49
$GPGGA,203934.000,5215.0972,N,00005.4475,W,1,05,02.4,69.1,M,45.0,M,,*45
$GPGGA,203935.000,5215.0949,N,00005.4357,W,1,05,02.4,73.5,M,45.0,M,,*44
$GPGGA,203936.000,5215.0927,N,00005.4239,W,1,05,02.4,77.8,M,45.0,M,,*4F
$GPGGA,203937.000,5215.0904,N,00005.4121,W,1,05,02.4,82.2,M,45.0,M,,*45
$GPGGA,203938.000,5215.0882,N,00005.4003,W,1,05,02.4,86.5,M,45.0,M,,*47
$GPGGA,203939.000,5215.0859,N,00005.3885,W,1,05,02.4,90.9,M,45.0,M,,*4A
$GPGGA,203940.000,5215.0837,N,00005.3768,W,1,05,02.4,95.3,M,45.0,M,,*4F
$GPGGA,203941.000,5215.0814,N,00005.3650,W,1,05,02.4,99.6,M,45.0,M,,*4C
$GPGGA,203942.000,5215.0792,N,00005.3532,W,1,05,02.4,104.0,M,45.0,M,,*7A
$GPGGA,203943.000,5215.0777,N,00005.3442,W,1,05,02.4,108.3,M,45.0,M,,*79
$GPGGA,203944.000,5215.0763,N,00005.3353,W,1,05,02.4,112.7,M,45.0,M,,*73
$GPGGA,203945.000,5215.0748,N,00005.3263,W,1,05,02.4,117.0,M,45.0,M,,*7B
$GPGGA,203946.000,5215.0733,N,00005.3173,W,1,05,02.4,121.4,M,45.0,M,,*77
$GPGGA,203947.000,5215.0719,N,00005.3084,W,1,05,02.4,125.7,M,45.0,M,,*70
$GPGGA,203948.000,5215.0704,N,00005.2994,W,1,05,02.4,130.1,M,45.0,M,,*78
$GPGGA,203949.000,5215.0689,N,00005.2904,W,1,05,02.4,134.4,M,45.0,M,,*75
$GPGGA,203950.000,5215.0675,N,00005.2814,W,1,05,02.4,138.8,M,45.0,M,,*7E
$GPGGA,203951.000,5215.0660,N,00005.2725,W,1,05,02.4,143.1,M,45.0,M,,*73
$GPGGA,203952.000,5215.0645,N,00005.2635,W,1,05,02.4,147.5,M,45.0,M,,*77
$GPGGA,203953.000,5215.0631,N,00005.2545,W,1,05,02.4,151.8,M,45.0,M,,*7B
$GPGGA,203954.000,5215.0616,N,00005.2456,W,1,05,02.4,156.2,M,45.0,M,,*77
$GPGGA,203955.000,5215.0602,N,00005.2366,W,1,05,02.4,160.5,M,45.0,M,,*75
$GPGGA,203956.000,5215.0587,N,00005.2276,W,1,05,02.4,164.9,M,45.0,M,,*70
$GPGGA,203957.000,5215.0572,N,00005.2187,W,1,05,02.4,169.2,M,45.0,M,,*70
$GPGGA,203958.000,5215.0558,N,00005.2097,W,1,05,02.4,173.6,M,45.0,M,,*78
$GPGGA,203959.000,5215.0543,N,00005.2007,W,1,05,02.4,177.9,M,45.0,M,,*71
$GPGGA,204000.000,5215.0528,N,00005.1917,W,1,05,02.4,182.3,M,45.0,M,,*75
$GPGGA,204001.000,5215.0514,N,00005.1828,W,1,05,02.4,186.6,M,45.0,M,,*77
$GPGGA,204002.000,5215.0499,N,00005.1738,W,1,05,02.4,191.0,M,45.0,M,,*7E
$GPGGA,204003.000,5215.0478,N,00005.1643,W,1,05,02.4,195.4,M,45.0,M,,*7D
$GPGGA,204004.000,5215.0457,N,00005.1547,W,1,05,02.4,199.7,M,45.0,M,,*7F
$GPGGA,204005.000,5215.0436,N,00005.1452,W,1,05,02.4,204.1,M,45.0,M,,*7D
$GPGGA,204006.000,5215.0416,N,00005.1357,W,1,05,02.4,208.5,M,45.0,M,,*76
$GPGGA,204007.000,5215.0395,N,00005.1261,W,1,05,02.4,212.8,M,45.0,M,,*79
$GPGGA,204008.000,5215.0374,N,00005.1166,W,1,05,02.4,217.2,M,45.0,M,,*72
$GPGGA,204009.000,5215.0353,N,00005.1070,W,1,05,02.4,221.6,M,45.0,M,,*71
$GPGGA,204010.000,5215.0332,N,00005.0975,W,1,05,02.4,225.9,M,45.0,M,,*78
$GPGGA,204011.000,5215.0311,N,00005.0880,W,1,05,02.4,230.3,M,45.0,M,,*7D
$GPGGA,204012.000,5215.0291,N,00005.0784,W,1,05,02.4,234.7,M,45.0,M,,*7C
$GPGGA,204013.000,5215.0270,N,00005.0689,W,1,05,02.4,239.1,M,45.0,M,,*75
$GPGGA,204014.000,5215.0249,N,00005.0594,W,1,05,02.4,243.4,M,45.0,M,,*7F
$GPGGA,204015.000,5215.0228,N,00005.0498,W,1,05,02.4,247.8,M,45.0,M,,*7C
$GPGGA,204016.000,5215.0207,N,00005.0403,W,1,05,02.4,252.2,M,45.0,M,,*7E
$GPGGA,204017.000,5215.0186,N,00005.0307,W,1,05,02.4,256.5,M,45.0,M,,*75
$GPGGA,204018.000,5215.0166,N,00005.0212,W,1,05,02.4,260.9,M,45.0,M,,*78
$GPGGA,204019.000,5215.0145,N,00005.0117,W,1,05,02.4,265.3,M,45.0,M,,*71
$GPGGA,204020.000,5215.0124,N,00005.0021,W,1,05,02.4,269.6,M,45.0,M,,*71
$GPGGA,204021.000,5215.0103,N,00004.9926,W,1,05,02.4,274.0,M,45.0,M,,*79
$GPGGA,204022.000,5215.0089,N,00004.9838,W,1,05,02.4,278.3,M,45.0,M,,*78
$GPGGA,204023.000,5215.0075,N,00004.9750,W,1,05,02.4,282.7,M,45.0,M,,*7A
$GPGGA,204024.000,5215.0061,N,00004.9661,W,1,05,02.4,287.0,M,45.0,M,,*79
$GPGGA,204025.000,5215.0046,N,00004.9573,W,1,05,02.4,291.4,M,45.0,M,,*7E
$GPGGA,204026.000,5215.0032,N,00004.9485,W,1,05,02.4,295.7,M,45.0,M,,*71
$GPGGA,204027.000,5215.0018,N,00004.9397,W,1,05,02.4,300.1,M,45.0,M,,*77
$GPGGA,204028.000,5215.0004,N,00004.9309,W,1,05,02.4,304.4,M,45.0,M,,*73
$GPGGA,204029.000,5214.9990,N,00004.9221,W,1,05,02.4,308.8,M,45.0,M,,*75
$GPGGA,204030.000,5214.9976,N,00004.9132,W,1,05,02.4,313.1,M,45.0,M,,*77
$GPGGA,204031.000,5214.9962,N,00004.9044,W,1,05,02.4,317.5,M,45.0,M,,*73
$GPGGA,204032.000,5214.9948,N,00004.8956,W,1,05,02.4,321.8,M,45.0,M,,*7B
$GPGGA,204033.000,5214.9933,N,00004.8868,W,1,05,02.4,326.2,M,45.0,M,,*77
$GPGGA,204034.000,5214.9919,N,00004.8780,W,1,05,02.4,330.5,M,45.0,M,,*71
$GPGGA,204035.000,5214.9905,N,00004.8692,W,1,05,02.4,334.9,M,45.0,M,,*77
$GPGGA,204036.000,5214.9891,N,00004.8603,W,1,05,02.4,339.2,M,45.0,M,,*76
$GPGGA,204037.000,5214.9877,N,00004.8515,W,1,05,02.4,343.6,M,45.0,M,,*72
$GPGGA,204038.000,5214.9863,N,00004.8427,W,1,05,02.4,347.9,M,45.0,M,,*73
$GPGGA,204039.000,5214.9849,N,00004.8339,W,1,05,02.4,352.3,M,45.0,M,,*7C
$GPGGA,204040.000,5214.9835,N,00004.8251,W,1,05,02.4,356.6,M,45.0,M,,*77
$GPGGA,204041.000,5214.9820,N,00004.8163,W,1,05,02.4,361.0,M,45.0,M,,*72
$GPGGA,204042.000,5214.9806,N,00004.8074,W,1,05,02.4,365.3,M,45.0,M,,*75
$GPGGA,204043.000,5214.9792,N,00004.7986,W,1,05,02.4,369.7,M,45.0,M,,*75
$GPGGA,204044.000,5214.9778,N,00004.7898,W,1,05,02.4,374.0,M,45.0,M,,*73
$GPGGA,204045.000,5214.9748,N,00004.7780,W,1,05,02.4,378.2,M,45.0,M,,*79
$GPGGA,204046.000,5214.9718,N,00004.7662,W,1,05,02.4,382.5,M,45.0,M,,*70
$GPGGA,204047.000,5214.9688,N,00004.7544,W,1,05,02.4,386.8,M,45.0,M,,*77
$GPGGA,204048.000,5214.9658,N,00004.7425,W,1,05,02.4,391.0,M,45.0,M,,*7D
$GPGGA,204049.000,5214.9628,N,00004.7307,W,1,05,02.4,395.2,M,45.0,M,,*7A
$GPGGA,204050.000,5214.9598,N,00004.7189,W,1,05,02.4,399.5,M,45.0,M,,*75
$GPGGA,204051.000,5214.9568,N,00004.7071,W,1,05,02.4,403.8,M,45.0,M,,*74
$GPGGA,204052.000,5214.9538,N,00004.6953,W,1,05,02.4,408.0,M,45.0,M,,*79
$GPGGA,204053.000,5214.9508,N,00004.6835,W,1,05,02.4,412.2,M,45.0,M,,*73
$GPGGA,204054.000,5214.9478,N,00004.6717,W,1,05,02.4,416.5,M,45.0,M,,*7E
$GPGGA,204055.000,5214.9448,N,00004.6599,W,1,05,02.4,420.8,M,45.0,M,,*70
$GPGGA,204056.000,5214.9417,N,00004.6480,W,1,05,02.4,425.0,M,45.0,M,,*7D
$GPGGA,204057.000,5214.9387,N,00004.6362,W,1,05,02.4,429.2,M,45.0,M,,*77
$GPGGA,204058.000,5214.9357,N,00004.6244,W,1,05,02.4,433.5,M,45.0,M,,*7C
$GPGGA,204059.000,5214.9327,N,00004.6126,W,1,05,02.4,437.8,M,45.0,M,,*74
$GPGGA,204100.000,5214.9297,N,00004.6008,W,1,05,02.4,442.0,M,45.0,M,,*74
$GPGGA,204101.000,5214.9269,N,00004.5914,W,1,05,02.4,446.2,M,45.0,M,,*75
$GPGGA,204102.000,5214.9241,N,00004.5820,W,1,05,02.4,450.4,M,45.0,M,,*7B
$GPGGA,204103.000,5214.9213,N,00004.5726,W,1,05,02.4,454.6,M,45.0,M,,*72
$GPGGA,204104.000,5214.9185,N,00004.5632,W,1,05,02.4,458.8,M,45.0,M,,*7F
$GPGGA,204105.000,5214.9157,N,00004.5538,W,1,05,02.4,463.0,M,45.0,M,,*78
$GPGGA,204106.000,5214.9128,N,00004.5445,W,1,05,02.4,467.2,M,45.0,M,,*7E
$GPGGA,204107.000,5214.9100,N,00004.5351,W,1,05,02.4,471.4,M,45.0,M,,*76
$GPGGA,204108.000,5214.9072,N,00004.5257,W,1,05,02.4,475.6,M,45.0,M,,*7C
$GPGGA,204109.000,5214.9044,N,00004.5163,W,1,05,02.4,479.8,M,45.0,M,,*7E
$GPGGA,204110.000,5214.9016,N,00004.5069,W,1,05,02.4,484.0,M,45.0,M,,*70
$GPGGA,204111.000,5214.8988,N,00004.4975,W,1,05,02.4,488.2,M,45.0,M,,*75
$GPGGA,204112.000,5214.8960,N,00004.4881,W,1,05,02.4,492.4,M,45.0,M,,*77
$GPGGA,204113.000,5214.8931,N,00004.4787,W,1,05,02.4,496.6,M,45.0,M,,*7D
$GPGGA,204114.000,5214.8903,N,00004.4693,W,1,05,02.4,500.8,M,45.0,M,,*7F
$GPGGA,204115.000,5214.8875,N,00004.4599,W,1,05,02.4,505.0,M,45.0,M,,*7A
$GPGGA,204116.000,5214.8847,N,00004.4506,W,1,05,02.4,509.2,M,45.0,M,,*70
$GPGGA,204117.000,5214.8819,N,00004.4412,W,1,05,02.4,513.4,M,45.0,M,,*73
$GPGGA,204118.000,5214.8791,N,00004.4318,W,1,05,02.4,517.6,M,45.0,M,,*78
$GPGGA,204119.000,5214.8762,N,00004.4224,W,1,05,02.4,521.8,M,45.0,M,,*70
$GPGGA,204120.000,5214.8734,N,00004.4130,W,1,05,02.4,526.0,M,45.0,M,,*70
$GPGGA,204121.000,5214.8699,N,00004.4013,W,1,05,02.4,530.3,M,45.0,M,,*73
$GPGGA,204122.000,5214.8663,N,00004.3897,W,1,05,02.4,534.7,M,45.0,M,,*76
$GPGGA,204123.000,5214.8627,N,00004.3780,W,1,05,02.4,539.0,M,45.0,M,,*74
$GPGGA,204124.000,5214.8591,N,00004.3663,W,1,05,02.4,543.3,M,45.0,M,,*7F
$GPGGA,204125.000,5214.8556,N,00004.3547,W,1,05,02.4,547.7,M,45.0,M,,*70
$GPGGA,204126.000,5214.8520,N,00004.3430,W,1,05,02.4,552.0,M,45.0,M,,*70
$GPGGA,204127.000,5214.8484,N,00004.3313,W,1,05,02.4,556.3,M,45.0,M,,*7F
$GPGGA,204128.000,5214.8448,N,00004.3197,W,1,05,02.4,560.7,M,45.0,M,,*7F
$GPGGA,204129.000,5214.8413,N,00004.3080,W,1,05,02.4,565.0,M,45.0,M,,*75
$GPGGA,204130.000,5214.8377,N,00004.2963,W,1,05,02.4,569.3,M,45.0,M,,*72
$GPGGA,204131.000,5214.8341,N,00004.2847,W,1,05,02.4,573.7,M,45.0,M,,*7E
$GPGGA,204132.000,5214.8306,N,00004.2730,W,1,05,02.4,578.0,M,45.0,M,,*7D
$GPGGA,204133.000,5214.8270,N,00004.2613,W,1,05,02.4,582.3,M,45.0,M,,*7A
$GPGGA,204134.000,5214.8234,N,00004.2497,W,1,05,02.4,586.7,M,45.0,M,,*73
$GPGGA,204135.000,5214.8198,N,00004.2380,W,1,05,02.4,591.0,M,45.0,M,,*77
$GPGGA,204136.000,5214.8163,N,00004.2263,W,1,05,02.4,595.3,M,45.0,M,,*7B
$GPGGA,204137.000,5214.8127,N,00004.2147,W,1,05,02.4,599.7,M,45.0,M,,*77
$GPGGA,204138.000,5214.8091,N,00004.2030,W,1,05,02.4,604.0,M,45.0,M,,*75
$GPGGA,204139.000,5214.8054,N,00004.1916,W,1,05,02.4,608.2,M,45.0,M,,*7D
$GPGGA,204140.000,5214.8017,N,00004.1803,W,1,05,02.4,612.5,M,45.0,M,,*7D
$GPGGA,204141.000,5214.7979,N,00004.1689,W,1,05,02.4,616.7,M,45.0,M,,*78
$GPGGA,204142.000,5214.7942,N,00004.1575,W,1,05,02.4,620.9,M,45.0,M,,*78
$GPGGA,204143.000,5214.7905,N,00004.1462,W,1,05,02.4,625.2,M,45.0,M,,*73
$GPGGA,204144.000,5214.7867,N,00004.1348,W,1,05,02.4,629.4,M,45.0,M,,*74
$GPGGA,204145.000,5214.7830,N,00004.1234,W,1,05,02.4,633.6,M,45.0,M,,*74
$GPGGA,204146.000,5214.7793,N,00004.1121,W,1,05,02.4,637.9,M,45.0,M,,*7D
$GPGGA,204147.000,5214.7755,N,00004.1007,W,1,05,02.4,642.1,M,45.0,M,,*79
$GPGGA,204148.000,5214.7718,N,00004.0894,W,1,05,02.4,646.4,M,45.0,M,,*7D
$GPGGA,204149.000,5214.7681,N,00004.0780,W,1,05,02.4,650.6,M,45.0,M,,*72
$GPGGA,204150.000,5214.7644,N,00004.0666,W,1,05,02.4,654.8,M,45.0,M,,*70
$GPGGA,204151.000,5214.7606,N,00004.0553,W,1,05,02.4,659.1,M,45.0,M,,*76
$GPGGA,204152.000,5214.7569,N,00004.0439,W,1,05,02.4,663.3,M,45.0,M,,*79
$GPGGA,204153.000,5214.7532,N,00004.0325,W,1,05,02.4,667.5,M,45.0,M,,*7E
$GPGGA,204154.000,5214.7494,N,00004.0212,W,1,05,02.4,671.8,M,45.0,M,,*7B
$GPGGA,204155.000,5214.7457,N,00004.0098,W,1,05,02.4,676.0,M,45.0,M,,*7A
$GPGGA,204156.000,5214.7423,N,00003.9983,W,1,05,02.4,680.2,M,45.0,M,,*7C
$GPGGA,204157.000,5214.7389,N,00003.9868,W,1,05,02.4,684.3,M,45.0,M,,*7B
$GPGGA,204158.000,5214.7355,N,00003.9753,W,1,05,02.4,688.5,M,45.0,M,,*78
$GPGGA,204159.000,5214.7321,N,00003.9638,W,1,05,02.4,692.7,M,45.0,M,,*7F
$GPGGA,204200.000,5214.7287,N,00003.9523,W,1,05,02.4,696.8,M,45.0,M,,*7F
$GPGGA,204201.000,5214.7253,N,00003.9408,W,1,05,02.4,701.0,M,45.0,M,,*78
$GPGGA,204202.000,5214.7219,N,00003.9293,W,1,05,02.4,705.2,M,45.0,M,,*77
$GPGGA,204203.000,5214.7184,N,00003.9178,W,1,05,02.4,709.3,M,45.0,M,,*7A
$GPGGA,204204.000,5214.7150,N,00003.9063,W,1,05,02.4,713.5,M,45.0,M,,*72
$GPGGA,204205.000,5214.7116,N,00003.8948,W,1,05,02.4,717.7,M,45.0,M,,*76
$GPGGA,204206.000,5214.7082,N,00003.8833,W,1,05,02.4,721.8,M,45.0,M,,*7E
$GPGGA,204207.000,5214.7048,N,00003.8718,W,1,05,02.4,726.0,M,45.0,M,,*70
$GPGGA,204208.000,5214.7014,N,00003.8603,W,1,05,02.4,730.2,M,45.0,M,,*78
$GPGGA,204209.000,5214.6980,N,00003.8488,W,1,05,02.4,734.3,M,45.0,M,,*78
$GPGGA,204210.000,5214.6946,N,00003.8373,W,1,05,02.4,738.5,M,45.0,M,,*73
$GPGGA,204211.000,5214.6912,N,00003.8258,W,1,05,02.4,742.7,M,45.0,M,,*74
$GPGGA,204212.000,5214.6878,N,00003.8143,W,1,05,02.4,746.8,M,45.0,M,,*78
$GPGGA,204213.000,5214.6844,N,00003.8028,W,1,05,02.4,751.0,M,45.0,M,,*74
$GPGGA,204214.000,5214.6804,N,00003.7908,W,1,05,02.4,755.2,M,45.0,M,,*75
$GPGGA,204215.000,5214.6764,N,00003.7788,W,1,05,02.4,759.3,M,45.0,M,,*76
$GPGGA,204216.000,5214.6724,N,00003.7668,W,1,05,02.4,763.5,M,45.0,M,,*71
$GPGGA,204217.000,5214.6684,N,00003.7548,W,1,05,02.4,767.7,M,45.0,M,,*7C
$GPGGA,204218.000,5214.6644,N,00003.7428,W,1,05,02.4,771.8,M,45.0,M,,*70
$GPGGA,204219.000,5214.6604,N,00003.7308,W,1,05,02.4,776.0,M,45.0,M,,*7F
$GPGGA,204220.000,5214.6564,N,00003.7188,W,1,05,02.4,780.2,M,45.0,M,,*71
$GPGGA,204221.000,5214.6524,N,00003.7068,W,1,05,02.4,784.3,M,45.0,M,,*7E
$GPGGA,204222.000,5214.6484,N,00003.6948,W,1,05,02.4,788.5,M,45.0,M,,*76
$GPGGA,204223.000,5214.6444,N,00003.6828,W,1,05,02.4,792.7,M,45.0,M,,*75
$GPGGA,204224.000,5214.6405,N,00003.6708,W,1,05,02.4,796.8,M,45.0,M,,*71
$GPGGA,204225.000,5214.6365,N,00003.6588,W,1,05,02.4,801.0,M,45.0,M,,*72
$GPGGA,204226.000,5214.6325,N,00003.6468,W,1,05,02.4,805.2,M,45.0,M,,*7C
$GPGGA,204227.000,5214.6285,N,00003.6348,W,1,05,02.4,809.3,M,45.0,M,,*7E
$GPGGA,204228.000,5214.6245,N,00003.6228,W,1,05,02.4,813.5,M,45.0,M,,*77
$GPGGA,204229.000,5214.6205,N,00003.6108,W,1,05,02.4,817.7,M,45.0,M,,*75
$GPGGA,204230.000,5214.6165,N,00003.5988,W,1,05,02.4,821.8,M,45.0,M,,*71
$GPGGA,204231.000,5214.6125,N,00003.5868,W,1,05,02.4,826.0,M,45.0,M,,*74
$GPGGA,204232.000,5214.6091,N,00003.5764,W,1,05,02.4,830.3,M,45.0,M,,*7E
$GPGGA,204233.000,5214.6056,N,00003.5660,W,1,05,02.4,834.5,M,45.0,M,,*73
$GPGGA,204234.000,5214.6022,N,00003.5556,W,1,05,02.4,838.8,M,45.0,M,,*70
$GPGGA,204235.000,5214.5987,N,00003.5452,W,1,05,02.4,843.1,M,45.0,M,,*74
$GPGGA,204236.000,5214.5953,N,00003.5348,W,1,05,02.4,847.4,M,45.0,M,,*73
$GPGGA,204237.000,5214.5918,N,00003.5245,W,1,05,02.4,851.6,M,45.0,M,,*74
$GPGGA,204238.000,5214.5884,N,00003.5141,W,1,05,02.4,855.9,M,45.0,M,,*73
$GPGGA,204239.000,5214.5850,N,00003.5037,W,1,05,02.4,860.2,M,45.0,M,,*76
$GPGGA,204240.000,5214.5815,N,00003.4933,W,1,05,02.4,864.5,M,45.0,M,,*76
$GPGGA,204241.000,5214.5781,N,00003.4829,W,1,05,02.4,868.7,M,45.0,M,,*71
$GPGGA,204242.000,5214.5746,N,00003.4725,W,1,05,02.4,873.0,M,45.0,M,,*77
$GPGGA,204243.000,5214.5712,N,00003.4621,W,1,05,02.4,877.3,M,45.0,M,,*75
$GPGGA,204244.000,5214.5677,N,00003.4517,W,1,05,02.4,881.5,M,45.0,M,,*79
$GPGGA,204245.000,5214.5643,N,00003.4413,W,1,05,02.4,885.8,M,45.0,M,,*73
$GPGGA,204246.000,5214.5608,N,00003.4309,W,1,05,02.4,890.1,M,45.0,M,,*7E
$GPGGA,204247.000,5214.5574,N,00003.4205,W,1,05,02.4,894.4,M,45.0,M,,*7B
$GPGGA,204248.000,5214.5540,N,00003.4102,W,1,05,02.4,898.6,M,45.0,M,,*79
$GPGGA,204249.000,5214.5505,N,00003.3998,W,1,05,02.4,902.9,M,45.0,M,,*78
$GPGGA,204250.000,5214.5471,N,00003.3894,W,1,05,02.4,907.2,M,45.0,M,,*71
$GPGGA,204251.000,5214.5436,N,00003.3790,W,1,05,02.4,911.5,M,45.0,M,,*78
$GPGGA,204252.000,5214.5402,N,00003.3686,W,1,05,02.4,915.7,M,45.0,M,,*7C
$GPGGA,204253.000,5214.5367,N,00003.3582,W,1,05,02.4,920.0,M,45.0,M,,*7F
$GPGGA,204254.000,5214.5332,N,00003.3465,W,1,05,02.4,924.2,M,45.0,M,,*76
$GPGGA,204255.000,5214.5296,N,00003.3348,W,1,05,02.4,928.5,M,45.0,M,,*7B
$GPGGA,204256.000,5214.5261,N,00003.3231,W,1,05,02.4,932.7,M,45.0,M,,*76
$GPGGA,204257.000,5214.5225,N,00003.3113,W,1,05,02.4,937.0,M,45.0,M,,*76
$GPGGA,204258.000,5214.5189,N,00003.2996,W,1,05,02.4,941.2,M,45.0,M,,*7B
$GPGGA,204259.000,5214.5154,N,00003.2879,W,1,05,02.4,945.4,M,45.0,M,,*78
$GPGGA,204300.000,5214.5118,N,00003.2762,W,1,05,02.4,949.7,M,45.0,M,,*77
$GPGGA,204301.000,5214.5082,N,00003.2645,W,1,05,02.4,953.9,M,45.0,M,,*75
$GPGGA,204302.000,5214.5047,N,00003.2528,W,1,05,02.4,958.1,M,45.0,M,,*74
$GPGGA,204303.000,5214.5011,N,00003.2411,W,1,05,02.4,962.4,M,45.0,M,,*71
$GPGGA,204304.000,5214.4975,N,00003.2293,W,1,05,02.4,966.6,M,45.0,M,,*76
$GPGGA,204305.000,5214.4940,N,00003.2176,W,1,05,02.4,970.9,M,45.0,M,,*71
$GPGGA,204306.000,5214.4904,N,00003.2059,W,1,05,02.4,975.1,M,45.0,M,,*73
$GPGGA,204307.000,5214.4868,N,00003.1942,W,1,05,02.4,979.3,M,45.0,M,,*77
$GPGGA,204308.000,5214.4833,N,00003.1825,W,1,05,02.4,983.6,M,45.0,M,,*76
$GPGGA,204309.000,5214.4797,N,00003.1708,W,1,05,02.4,987.8,M,45.0,M,,*7C
$GPGGA,204310.000,5214.4762,N,00003.1591,W,1,05,02.4,992.0,M,45.0,M,,*70
$GPGGA,204311.000,5214.4726,N,00003.1473,W,1,05,02.4,996.3,M,45.0,M,,*7B
$GPGGA,204312.000,5214.4690,N,00003.1356,W,1,05,02.4,1000.5,M,45.0,M,,*45
$GPGGA,204313.000,5214.4655,N,00003.1239,W,1,05,02.4,1004.8,M,45.0,M,,*4C
$GPGGA,204314.000,5214.4619,N,00003.1122,W,1,05,02.4,1009.0,M,45.0,M,,*4F
$GPGGA,204315.000,5214.4589,N,00003.1024,W,1,05,02.4,1013.2,M,45.0,M,,*4A
$GPGGA,204316.000,5214.4558,N,00003.0926,W,1,05,02.4,1017.5,M,45.0,M,,*4C
$GPGGA,204317.000,5214.4528,N,00003.0829,W,1,05,02.4,1021.8,M,45.0,M,,*4C
$GPGGA,204318.000,5214.4498,N,00003.0731,W,1,05,02.4,1026.0,M,45.0,M,,*40
$GPGGA,204319.000,5214.4467,N,00003.0633,W,1,05,02.4,1030.2,M,45.0,M,,*47
$GPGGA,204320.000,5214.4437,N,00003.0535,W,1,05,02.4,1034.5,M,45.0,M,,*4E
$GPGGA,204321.000,5214.4407,N,00003.0437,W,1,05,02.4,1038.8,M,45.0,M,,*4E
$GPGGA,204322.000,5214.4376,N,00003.0340,W,1,05,02.4,1043.0,M,45.0,M,,*4F
$GPGGA,204323.000,5214.4346,N,00003.0242,W,1,05,02.4,1047.2,M,45.0,M,,*48
$GPGGA,204324.000,5214.4316,N,00003.0144,W,1,05,02.4,1051.5,M,45.0,M,,*4F
$GPGGA,204325.000,5214.4285,N,00003.0046,W,1,05,02.4,1055.8,M,45.0,M,,*4F
$GPGGA,204326.000,5214.4255,N,00002.9948,W,1,05,02.4,1060.0,M,45.0,M,,*40
$GPGGA,204327.000,5214.4225,N,00002.9851,W,1,05,02.4,1064.2,M,45.0,M,,*49
$GPGGA,204328.000,5214.4194,N,00002.9753,W,1,05,02.4,1068.5,M,45.0,M,,*49
$GPGGA,204329.000,5214.4164,N,00002.9655,W,1,05,02.4,1072.8,M,45.0,M,,*46
$GPGGA,204330.000,5214.4134,N,00002.9557,W,1,05,02.4,1077.0,M,45.0,M,,*47
$GPGGA,204331.000,5214.4103,N,00002.9459,W,1,05,02.4,1081.2,M,45.0,M,,*46
$GPGGA,204332.000,5214.4073,N,00002.9362,W,1,05,02.4,1085.5,M,45.0,M,,*4F
$GPGGA,204333.000,5214.4043,N,00002.9264,W,1,05,02.4,1089.8,M,45.0,M,,*4B
$GPGGA,204334.000,5214.4012,N,00002.9166,W,1,05,02.4,1094.0,M,45.0,M,,*4D
$GPGGA,204335.000,5214.3983,N,00002.9063,W,1,05,02.4,1098.2,M,45.0,M,,*40
$GPGGA,204336.000,5214.3954,N,00002.8959,W,1,05,02.4,1102.5,M,45.0,M,,*4D
$GPGGA,204337.000,5214.3924,N,00002.8856,W,1,05,02.4,1106.7,M,45.0,M,,*43
$GPGGA,204338.000,5214.3895,N,00002.8752,W,1,05,02.4,1111.0,M,45.0,M,,*4D
$GPGGA,204339.000,5214.3865,N,00002.8649,W,1,05,02.4,1115.2,M,45.0,M,,*4E
$GPGGA,204340.000,5214.3836,N,00002.8545,W,1,05,02.4,1119.4,M,45.0,M,,*43
$GPGGA,204341.000,5214.3806,N,00002.8442,W,1,05,02.4,1123.7,M,45.0,M,,*4D
$GPGGA,204342.000,5214.3777,N,00002.8339,W,1,05,02.4,1127.9,M,45.0,M,,*46
$GPGGA,204343.000,5214.3748,N,00002.8235,W,1,05,02.4,1132.1,M,45.0,M,,*4A
$GPGGA,204344.000,5214.3718,N,00002.8132,W,1,05,02.4,1136.4,M,45.0,M,,*4D
$GPGGA,204345.000,5214.3689,N,00002.8028,W,1,05,02.4,1140.6,M,45.0,M,,*4C
$GPGGA,204346.000,5214.3659,N,00002.7925,W,1,05,02.4,1144.9,M,45.0,M,,*42
$GPGGA,204347.000,5214.3630,N,00002.7821,W,1,05,02.4,1149.1,M,45.0,M,,*4C
$GPGGA,204348.000,5214.3600,N,00002.7718,W,1,05,02.4,1153.3,M,45.0,M,,*4C
$GPGGA,204349.000,5214.3571,N,00002.7615,W,1,05,02.4,1157.6,M,45.0,M,,*45
$GPGGA,204350.000,5214.3542,N,00002.7511,W,1,05,02.4,1161.8,M,45.0,M,,*41
$GPGGA,204351.000,5214.3512,N,00002.7408,W,1,05,02.4,1166.0,M,45.0,M,,*43
$GPGGA,204352.000,5214.3483,N,00002.7304,W,1,05,02.4,1170.3,M,45.0,M,,*46
$GPGGA,204353.000,5214.3453,N,00002.7201,W,1,05,02.4,1174.5,M,45.0,M,,*4C
$GPGGA,204354.000,5214.3424,N,00002.7097,W,1,05,02.4,1178.8,M,45.0,M,,*47
$GPGGA,204355.000,5214.3394,N,00002.6994,W,1,05,02.4,1183.0,M,45.0,M,,*4D
$GPGGA,204356.000,5214.3370,N,00002.6890,W,1,05,02.4,1187.3,M,45.0,M,,*46
$GPGGA,204357.000,5214.3346,N,00002.6786,W,1,05,02.4,1191.6,M,45.0,M,,*48
$GPGGA,204358.000,5214.3322,N,00002.6682,W,1,05,02.4,1195.9,M,45.0,M,,*4B
$GPGGA,204359.000,5214.3298,N,00002.6578,W,1,05,02.4,1200.2,M,45.0,M,,*48
$GPGGA,204400.000,5214.3273,N,00002.6474,W,1,05,02.4,1204.5,M,45.0,M,,*48
$GPGGA,204401.000,5214.3249,N,00002.6370,W,1,05,02.4,1208.8,M,45.0,M,,*42
$GPGGA,204402.000,5214.3225,N,00002.6266,W,1,05,02.4,1213.0,M,45.0,M,,*4F
$GPGGA,204403.000,5214.3201,N,00002.6162,W,1,05,02.4,1217.3,M,45.0,M,,*48
$GPGGA,204404.000,5214.3176,N,00002.6058,W,1,05,02.4,1221.6,M,45.0,M,,*44
$GPGGA,204405.000,5214.3152,N,00002.5954,W,1,05,02.4,1225.9,M,45.0,M,,*4E
$GPGGA,204406.000,5214.3128,N,00002.5850,W,1,05,02.4,1230.2,M,45.0,M,,*4A
$GPGGA,204407.000,5214.3104,N,00002.5746,W,1,05,02.4,1234.5,M,45.0,M,,*4E
$GPGGA,204408.000,5214.3080,N,00002.5642,W,1,05,02.4,1238.8,M,45.0,M,,*48
$GPGGA,204409.000,5214.3055,N,00002.5538,W,1,05,02.4,1243.1,M,45.0,M,,*4A
$GPGGA,204410.000,5214.3031,N,00002.5434,W,1,05,02.4,1247.4,M,45.0,M,,*4C
$GPGGA,204411.000,5214.3007,N,00002.5330,W,1,05,02.4,1251.7,M,45.0,M,,*4F
$GPGGA,204412.000,5214.2983,N,00002.5226,W,1,05,02.4,1256.0,M,45.0,M,,*4E
$GPGGA,204413.000,5214.2958,N,00002.5122,W,1,05,02.4,1260.3,M,45.0,M,,*48
$GPGGA,204414.000,5214.2934,N,00002.5018,W,1,05,02.4,1264.5,M,45.0,M,,*4F
$GPGGA,204415.000,5214.2910,N,00002.4914,W,1,05,02.4,1268.8,M,45.0,M,,*4D
$GPGGA,204416.000,5214.2886,N,00002.4810,W,1,05,02.4,1273.1,M,45.0,M,,*46
$GPGGA,204417.000,5214.2862,N,00002.4706,W,1,05,02.4,1277.4,M,45.0,M,,*44
$GPGGA,204418.000,5214.2837,N,00002.4602,W,1,05,02.4,1281.7,M,45.0,M,,*44
$GPGGA,204419.000,5214.2813,N,00002.4498,W,1,05,02.4,1286.0,M,45.0,M,,*42
$GPGGA,204420.000,5214.2794,N,00002.4409,W,1,05,02.4,1290.2,M,45.0,M,,*45
$GPGGA,204421.000,5214.2774,N,00002.4319,W,1,05,02.4,1294.4,M,45.0,M,,*4E
$GPGGA,204422.000,5214.2754,N,00002.4230,W,1,05,02.4,1298.7,M,45.0,M,,*4A
$GPGGA,204423.000,5214.2735,N,00002.4140,W,1,05,02.4,1302.9,M,45.0,M,,*44
$GPGGA,204424.000,5214.2715,N,00002.4051,W,1,05,02.4,1307.1,M,45.0,M,,*4D
$GPGGA,204425.000,5214.2695,N,00002.3961,W,1,05,02.4,1311.3,M,45.0,M,,*4D
$GPGGA,204426.000,5214.2676,N,00002.3872,W,1,05,02.4,1315.5,M,45.0,M,,*42
$GPGGA,204427.000,5214.2656,N,00002.3782,W,1,05,02.4,1319.7,M,45.0,M,,*4F
$GPGGA,204428.000,5214.2637,N,00002.3693,W,1,05,02.4,1324.0,M,45.0,M,,*4F
$GPGGA,204429.000,5214.2617,N,00002.3603,W,1,05,02.4,1328.2,M,45.0,M,,*4B
$GPGGA,204430.000,5214.2597,N,00002.3514,W,1,05,02.4,1332.4,M,45.0,M,,*40
$GPGGA,204431.000,5214.2578,N,00002.3424,W,1,05,02.4,1336.6,M,45.0,M,,*44
$GPGGA,204432.000,5214.2558,N,00002.3335,W,1,05,02.4,1340.8,M,45.0,M,,*4D
$GPGGA,204433.000,5214.2539,N,00002.3245,W,1,05,02.4,1345.0,M,45.0,M,,*40
$GPGGA,204434.000,5214.2519,N,00002.3156,W,1,05,02.4,1349.3,M,45.0,M,,*4B
$GPGGA,204435.000,5214.2499,N,00002.3066,W,1,05,02.4,1353.5,M,45.0,M,,*4C
$GPGGA,204436.000,5214.2480,N,00002.2977,W,1,05,02.4,1357.7,M,45.0,M,,*49
$GPGGA,204437.000,5214.2460,N,00002.2887,W,1,05,02.4,1361.9,M,45.0,M,,*43
$GPGGA,204438.000,5214.2441,N,00002.2798,W,1,05,02.4,1366.1,M,45.0,M,,*41
$GPGGA,204439.000,5214.2421,N,00002.2708,W,1,05,02.4,1370.3,M,45.0,M,,*4A
$GPGGA,204440.000,5214.2401,N,00002.2619,W,1,05,02.4,1374.6,M,45.0,M,,*46
$GPGGA,204441.000,5214.2382,N,00002.2529,W,1,05,02.4,1378.8,M,45.0,M,,*49
$GPGGA,204442.000,5214.2362,N,00002.2440,W,1,05,02.4,1383.0,M,45.0,M,,*46
$GPGGA,204443.000,5214.2341,N,00002.2350,W,1,05,02.4,1387.2,M,45.0,M,,*46
$GPGGA,204444.000,5214.2321,N,00002.2260,W,1,05,02.4,1391.4,M,45.0,M,,*44
$GPGGA,204445.000,5214.2300,N,00002.2170,W,1,05,02.4,1395.6,M,45.0,M,,*42
$GPGGA,204446.000,5214.2279,N,00002.2080,W,1,05,02.4,1399.8,M,45.0,M,,*42
$GPGGA,204447.000,5214.2258,N,00002.1990,W,1,05,02.4,1404.0,M,45.0,M,,*40
$GPGGA,204448.000,5214.2237,N,00002.1900,W,1,05,02.4,1408.2,M,45.0,M,,*41
$GPGGA,204449.000,5214.2217,N,00002.1810,W,1,05,02.4,1412.5,M,45.0,M,,*4E
$GPGGA,204450.000,5214.2196,N,00002.1720,W,1,05,02.4,1416.7,M,45.0,M,,*46
$GPGGA,204451.000,5214.2175,N,00002.1630,W,1,05,02.4,1420.9,M,45.0,M,,*41
$GPGGA,204452.000,5214.2154,N,00002.1540,W,1,05,02.4,1425.1,M,45.0,M,,*48
$GPGGA,204453.000,5214.2134,N,00002.1450,W,1,05,02.4,1429.3,M,45.0,M,,*41
$GPGGA,204454.000,5214.2113,N,00002.1360,W,1,05,02.4,1433.5,M,45.0,M,,*4A
$GPGGA,204455.000,5214.2092,N,00002.1270,W,1,05,02.4,1437.7,M,45.0,M,,*45
$GPGGA,204456.000,5214.2071,N,00002.1180,W,1,05,02.4,1441.9,M,45.0,M,,*48
$GPGGA,204457.000,5214.2050,N,00002.1090,W,1,05,02.4,1446.1,M,45.0,M,,*45
$GPGGA,204458.000,5214.2030,N,00002.1000,W,1,05,02.4,1450.3,M,45.0,M,,*40
$GPGGA,204459.000,5214.2009,N,00002.0910,W,1,05,02.4,1454.5,M,45.0,M,,*40
$GPGGA,204500.000,5214.1988,N,00002.0820,W,1,05,02.4,1458.7,M,45.0,M,,*42
$GPGGA,204501.000,5214.1967,N,00002.0730,W,1,05,02.4,1463.0,M,45.0,M,,*43
$GPGGA,204502.000,5214.1946,N,00002.0640,W,1,05,02.4,1467.2,M,45.0,M,,*43
$GPGGA,204503.000,5214.1926,N,00002.0550,W,1,05,02.4,1471.4,M,45.0,M,,*47
$GPGGA,204504.000,5214.1905,N,00002.0460,W,1,05,02.4,1475.6,M,45.0,M,,*45
$GPGGA,204505.000,5214.1884,N,00002.0370,W,1,05,02.4,1479.8,M,45.0,M,,*48
$GPGGA,204506.000,5214.1863,N,00002.0280,W,1,05,02.4,1484.0,M,45.0,M,,*46
$GPGGA,204507.000,5214.1830,N,00002.0180,W,1,05,02.4,1488.4,M,45.0,M,,*4A
$GPGGA,204508.000,5214.1797,N,00002.0079,W,1,05,02.4,1492.8,M,45.0,M,,*47
$GPGGA,204509.000,5214.1764,N,00001.9979,W,1,05,02.4,1497.1,M,45.0,M,,*45
$GPGGA,204510.000,5214.1731,N,00001.9879,W,1,05,02.4,1501.5,M,45.0,M,,*46
$GPGGA,204511.000,5214.1698,N,00001.9779,W,1,05,02.4,1505.9,M,45.0,M,,*42
$GPGGA,204512.000,5214.1664,N,00001.9678,W,1,05,02.4,1510.3,M,45.0,M,,*4C
$GPGGA,204513.000,5214.1631,N,00001.9578,W,1,05,02.4,1514.7,M,45.0,M,,*4E
$GPGGA,204514.000,5214.1598,N,00001.9478,W,1,05,02.4,1519.0,M,45.0,M,,*42
$GPGGA,204515.000,5214.1565,N,00001.9377,W,1,05,02.4,1523.4,M,45.0,M,,*44
$GPGGA,204516.000,5214.1532,N,00001.9277,W,1,05,02.4,1527.8,M,45.0,M,,*4C
$GPGGA,204517.000,5214.1499,N,00001.9177,W,1,05,02.4,1532.2,M,45.0,M,,*40
$GPGGA,204518.000,5214.1466,N,00001.9077,W,1,05,02.4,1536.6,M,45.0,M,,*4E
$GPGGA,204519.000,5214.1433,N,00001.8976,W,1,05,02.4,1541.0,M,45.0,M,,*40
$GPGGA,204520.000,5214.1399,N,00001.8876,W,1,05,02.4,1545.3,M,45.0,M,,*4B
$GPGGA,204521.000,5214.1366,N,00001.8776,W,1,05,02.4,1549.7,M,45.0,M,,*4D
$GPGGA,204522.000,5214.1333,N,00001.8675,W,1,05,02.4,1554.1,M,45.0,M,,*46
$GPGGA,204523.000,5214.1300,N,00001.8575,W,1,05,02.4,1558.5,M,45.0,M,,*4C
$GPGGA,204524.000,5214.1267,N,00001.8475,W,1,05,02.4,1562.9,M,45.0,M,,*4F
$GPGGA,204525.000,5214.1234,N,00001.8375,W,1,05,02.4,1567.2,M,45.0,M,,*41
$GPGGA,204526.000,5214.1201,N,00001.8274,W,1,05,02.4,1571.6,M,45.0,M,,*47
$GPGGA,204527.000,5214.1167,N,00001.8174,W,1,05,02.4,1576.0,M,45.0,M,,*47
$GPGGA,204528.000,5214.1137,N,00001.8066,W,1,05,02.4,1580.4,M,45.0,M,,*42
$GPGGA,204529.000,5214.1107,N,00001.7957,W,1,05,02.4,1584.7,M,45.0,M,,*43
$GPGGA,204530.000,5214.1077,N,00001.7849,W,1,05,02.4,1589.1,M,45.0,M,,*48
$GPGGA,204531.000,5214.1047,N,00001.7741,W,1,05,02.4,1593.5,M,45.0,M,,*42
$GPGGA,204532.000,5214.1017,N,00001.7632,W,1,05,02.4,1597.8,M,45.0,M,,*48
$GPGGA,204533.000,5214.0987,N,00001.7524,W,1,05,02.4,1602.2,M,45.0,M,,*49
$GPGGA,204534.000,5214.0957,N,00001.7416,W,1,05,02.4,1606.6,M,45.0,M,,*43
$GPGGA,204535.000,5214.0927,N,00001.7307,W,1,05,02.4,1610.9,M,45.0,M,,*4A
$GPGGA,204536.000,5214.0897,N,00001.7199,W,1,05,02.4,1615.3,M,45.0,M,,*49
$GPGGA,204537.000,5214.0867,N,00001.7091,W,1,05,02.4,1619.7,M,45.0,M,,*46
$GPGGA,204538.000,5214.0837,N,00001.6983,W,1,05,02.4,1624.1,M,45.0,M,,*4F
$GPGGA,204539.000,5214.0808,N,00001.6874,W,1,05,02.4,1628.4,M,45.0,M,,*42
$GPGGA,204540.000,5214.0778,N,00001.6766,W,1,05,02.4,1632.8,M,45.0,M,,*4F
$GPGGA,204541.000,5214.0748,N,00001.6658,W,1,05,02.4,1637.2,M,45.0,M,,*4E
$GPGGA,204542.000,5214.0718,N,00001.6549,W,1,05,02.4,1641.5,M,45.0,M,,*4D
$GPGGA,204543.000,5214.0688,N,00001.6441,W,1,05,02.4,1645.9,M,45.0,M,,*45
$GPGGA,204544.000,5214.0658,N,00001.6333,W,1,05,02.4,1650.3,M,45.0,M,,*43
$GPGGA,204545.000,5214.0628,N,00001.6224,W,1,05,02.4,1654.6,M,45.0,M,,*43
$GPGGA,204546.000,5214.0598,N,00001.6116,W,1,05,02.4,1659.0,M,45.0,M,,*41
$GPGGA,204547.000,5214.0575,N,00001.6034,W,1,05,02.4,1663.3,M,45.0,M,,*48
$GPGGA,204548.000,5214.0553,N,00001.5952,W,1,05,02.4,1667.5,M,45.0,M,,*4B
$GPGGA,204549.000,5214.0531,N,00001.5871,W,1,05,02.4,1671.8,M,45.0,M,,*44
$GPGGA,204550.000,5214.0509,N,00001.5789,W,1,05,02.4,1676.1,M,45.0,M,,*41
$GPGGA,204551.000,5214.0487,N,00001.5707,W,1,05,02.4,1680.4,M,45.0,M,,*4D
$GPGGA,204552.000,5214.0465,N,00001.5625,W,1,05,02.4,1684.6,M,45.0,M,,*45
$GPGGA,204553.000,5214.0443,N,00001.5543,W,1,05,02.4,1688.9,M,45.0,M,,*40
$GPGGA,204554.000,5214.0421,N,00001.5461,W,1,05,02.4,1693.2,M,45.0,M,,*43
$GPGGA,204555.000,5214.0399,N,00001.5380,W,1,05,02.4,1697.5,M,45.0,M,,*4D
$GPGGA,204556.000,5214.0377,N,00001.5298,W,1,05,02.4,1701.7,M,45.0,M,,*4A
$GPGGA,204557.000,5214.0355,N,00001.5216,W,1,05,02.4,1706.0,M,45.0,M,,*4D
$GPGGA,204558.000,5214.0333,N,00001.5134,W,1,05,02.4,1710.3,M,45.0,M,,*45
$GPGGA,204559.000,5214.0311,N,00001.5052,W,1,05,02.4,1714.5,M,45.0,M,,*47
$GPGGA,204600.000,5214.0289,N,00001.4971,W,1,05,02.4,1718.8,M,45.0,M,,*40
$GPGGA,204601.000,5214.0267,N,00001.4889,W,1,05,02.4,1723.1,M,45.0,M,,*46
$GPGGA,204602.000,5214.0245,N,00001.4807,W,1,05,02.4,1727.4,M,45.0,M,,*42
$GPGGA,204603.000,5214.0223,N,00001.4725,W,1,05,02.4,1731.6,M,45.0,M,,*49
$GPGGA,204604.000,5214.0201,N,00001.4643,W,1,05,02.4,1735.9,M,45.0,M,,*44
$GPGGA,204605.000,5214.0178,N,00001.4561,W,1,05,02.4,1740.2,M,45.0,M,,*42
$GPGGA,204606.000,5214.0156,N,00001.4480,W,1,05,02.4,1744.5,M,45.0,M,,*40
$GPGGA,204607.000,5214.0134,N,00001.4398,W,1,05,02.4,1748.7,M,45.0,M,,*45
$GPGGA,204608.000,5214.0112,N,00001.4316,W,1,05,02.4,1753.0,M,45.0,M,,*45
$GPGGA,204609.000,5214.0097,N,00001.4250,W,1,05,02.4,1757.2,M,45.0,M,,*4D
$GPGGA,204610.000,5214.0081,N,00001.4184,W,1,05,02.4,1761.5,M,45.0,M,,*4A
$GPGGA,204611.000,5214.0065,N,00001.4117,W,1,05,02.4,1765.8,M,45.0,M,,*42
$GPGGA,204612.000,5214.0050,N,00001.4051,W,1,05,02.4,1770.0,M,45.0,M,,*48
$GPGGA,204613.000,5214.0034,N,00001.3985,W,1,05,02.4,1774.2,M,45.0,M,,*4A
$GPGGA,204614.000,5214.0019,N,00001.3919,W,1,05,02.4,1778.5,M,45.0,M,,*4C
$GPGGA,204615.000,5214.0003,N,00001.3853,W,1,05,02.4,1782.8,M,45.0,M,,*41
$GPGGA,204616.000,5213.9987,N,00001.3786,W,1,05,02.4,1787.0,M,45.0,M,,*43
$GPGGA,204617.000,5213.9972,N,00001.3720,W,1,05,02.4,1791.2,M,45.0,M,,*41
$GPGGA,204618.000,5213.9956,N,00001.3654,W,1,05,02.4,1795.5,M,45.0,M,,*49
$GPGGA,204619.000,5213.9941,N,00001.3588,W,1,05,02.4,1799.8,M,45.0,M,,*4D
$GPGGA,204620.000,5213.9925,N,00001.3521,W,1,05,02.4,1804.0,M,45.0,M,,*45
$GPGGA,204621.000,5213.9909,N,00001.3455,W,1,05,02.4,1808.2,M,45.0,M,,*46
$GPGGA,204622.000,5213.9894,N,00001.3389,W,1,05,02.4,1812.5,M,45.0,M,,*4A
$GPGGA,204623.000,5213.9878,N,00001.3323,W,1,05,02.4,1816.8,M,45.0,M,,*40
$GPGGA,204624.000,5213.9862,N,00001.3257,W,1,05,02.4,1821.0,M,45.0,M,,*42
$GPGGA,204625.000,5213.9847,N,00001.3190,W,1,05,02.4,1825.2,M,45.0,M,,*4A
$GPGGA,204626.000,5213.9831,N,00001.3124,W,1,05,02.4,1829.5,M,45.0,M,,*4C
$GPGGA,204627.000,5213.9816,N,00001.3058,W,1,05,02.4,1833.8,M,45.0,M,,*44
$GPGGA,204628.000,5213.9800,N,00001.2992,W,1,05,02.4,1838.0,M,45.0,M,,*41
$GPGGA,204629.000,5213.9784,N,00001.2926,W,1,05,02.4,1842.2,M,45.0,M,,*43
$GPGGA,204630.000,5213.9769,N,00001.2859,W,1,05,02.4,1846.5,M,45.0,M,,*42
$GPGGA,204631.000,5213.9753,N,00001.2793,W,1,05,02.4,1850.8,M,45.0,M,,*49
$GPGGA,204632.000,5213.9738,N,00001.2727,W,1,05,02.4,1855.0,M,45.0,M,,*45
$GPGGA,204633.000,5213.9722,N,00001.2661,W,1,05,02.4,1859.2,M,45.0,M,,*42
$GPGGA,204634.000,5213.9706,N,00001.2594,W,1,05,02.4,1863.5,M,45.0,M,,*44
$GPGGA,204635.000,5213.9691,N,00001.2528,W,1,05,02.4,1867.8,M,45.0,M,,*44
$GPGGA,204636.000,5213.9675,N,00001.2462,W,1,05,02.4,1872.0,M,45.0,M,,*4E
$GPGGA,204637.000,5213.9658,N,00001.2396,W,1,05,02.4,1876.3,M,45.0,M,,*4B
$GPGGA,204638.000,5213.9640,N,00001.2330,W,1,05,02.4,1880.5,M,45.0,M,,*4E
$GPGGA,204639.000,5213.9622,N,00001.2265,W,1,05,02.4,1884.8,M,45.0,M,,*43
$GPGGA,204640.000,5213.9605,N,00001.2199,W,1,05,02.4,1889.1,M,45.0,M,,*4C
$GPGGA,204641.000,5213.9587,N,00001.2133,W,1,05,02.4,1893.3,M,45.0,M,,*4D
$GPGGA,204642.000,5213.9570,N,00001.2067,W,1,05,02.4,1897.6,M,45.0,M,,*47
$GPGGA,204643.000,5213.9552,N,00001.2002,W,1,05,02.4,1901.9,M,45.0,M,,*44
$GPGGA,204644.000,5213.9534,N,00001.1936,W,1,05,02.4,1906.2,M,45.0,M,,*42
$GPGGA,204645.000,5213.9517,N,00001.1870,W,1,05,02.4,1910.4,M,45.0,M,,*40
$GPGGA,204646.000,5213.9499,N,00001.1804,W,1,05,02.4,1914.7,M,45.0,M,,*40
$GPGGA,204647.000,5213.9481,N,00001.1739,W,1,05,02.4,1919.0,M,45.0,M,,*43
$GPGGA,204648.000,5213.9464,N,00001.1673,W,1,05,02.4,1923.2,M,45.0,M,,*43
$GPGGA,204649.000,5213.9446,N,00001.1607,W,1,05,02.4,1927.5,M,45.0,M,,*42
$GPGGA,204650.000,5213.9429,N,00001.1541,W,1,05,02.4,1931.8,M,45.0,M,,*48
$GPGGA,204651.000,5213.9411,N,00001.1475,W,1,05,02.4,1936.0,M,45.0,M,,*4B
$GPGGA,204652.000,5213.9393,N,00001.1410,W,1,05,02.4,1940.3,M,45.0,M,,*44
$GPGGA,204653.000,5213.9376,N,00001.1344,W,1,05,02.4,1944.6,M,45.0,M,,*49
$GPGGA,204654.000,5213.9358,N,00001.1278,W,1,05,02.4,1948.8,M,45.0,M,,*4E
$GPGGA,204655.000,5213.9341,N,00001.1212,W,1,05,02.4,1953.1,M,45.0,M,,*48
$GPGGA,204656.000,5213.9323,N,00001.1147,W,1,05,02.4,1957.4,M,45.0,M,,*4D
$GPGGA,204657.000,5213.9305,N,00001.1081,W,1,05,02.4,1961.7,M,45.0,M,,*45
$GPGGA,204658.000,5213.9288,N,00001.1015,W,1,05,02.4,1965.9,M,45.0,M,,*49
$GPGGA,204659.000,5213.9270,N,00001.0949,W,1,05,02.4,1970.2,M,45.0,M,,*41
$GPGGA,204700.000,5213.9253,N,00001.0884,W,1,05,02.4,1974.5,M,45.0,M,,*4E
$GPGGA,204701.000,5213.9235,N,00001.0818,W,1,05,02.4,1978.7,M,45.0,M,,*44
$GPGGA,204702.000,5213.9217,N,00001.0752,W,1,05,02.4,1983.0,M,45.0,M,,*45
$GPGGA,204703.000,5213.9189,N,00001.0673,W,1,05,02.4,1987.3,M,45.0,M,,*45
$GPGGA,204704.000,5213.9160,N,00001.0595,W,1,05,02.4,1991.7,M,45.0,M,,*4D
$GPGGA,204705.000,5213.9132,N,00001.0516,W,1,05,02.4,1996.0,M,45.0,M,,*40
$GPGGA,204706.000,5213.9103,N,00001.0437,W,1,05,02.4,2000.4,M,45.0,M,,*42
$GPGGA,204707.000,5213.9074,N,00001.0359,W,1,05,02.4,2004.7,M,45.0,M,,*4A
$GPGGA,204708.000,5213.9046,N,00001.0280,W,1,05,02.4,2009.1,M,45.0,M,,*4A
$GPGGA,204709.000,5213.9017,N,00001.0201,W,1,05,02.4,2013.4,M,45.0,M,,*48
$GPGGA,204710.000,5213.8988,N,00001.0122,W,1,05,02.4,2017.8,M,45.0,M,,*44
$GPGGA,204711.000,5213.8960,N,00001.0044,W,1,05,02.4,2022.1,M,45.0,M,,*4D
$GPGGA,204712.000,5213.8931,N,00000.9965,W,1,05,02.4,2026.5,M,45.0,M,,*48
$GPGGA,204713.000,5213.8903,N,00000.9886,W,1,05,02.4,2030.8,M,45.0,M,,*4E
$GPGGA,204714.000,5213.8874,N,00000.9808,W,1,05,02.4,2035.2,M,45.0,M,,*41
$GPGGA,204715.000,5213.8845,N,00000.9729,W,1,05,02.4,2039.5,M,45.0,M,,*45
$GPGGA,204716.000,5213.8817,N,00000.9650,W,1,05,02.4,2043.8,M,45.0,M,,*4E
$GPGGA,204717.000,5213.8788,N,00000.9572,W,1,05,02.4,2048.2,M,45.0,M,,*44
$GPGGA,204718.000,5213.8760,N,00000.9493,W,1,05,02.4,2052.5,M,45.0,M,,*4F
$GPGGA,204719.000,5213.8731,N,00000.9414,W,1,05,02.4,2056.9,M,45.0,M,,*4D
$GPGGA,204720.000,5213.8702,N,00000.9336,W,1,05,02.4,2061.2,M,45.0,M,,*4F
$GPGGA,204721.000,5213.8674,N,00000.9257,W,1,05,02.4,2065.6,M,45.0,M,,*48
$GPGGA,204722.000,5213.8645,N,00000.9178,W,1,05,02.4,2069.9,M,45.0,M,,*44
$GPGGA,204723.000,5213.8617,N,00000.9099,W,1,05,02.4,2074.3,M,45.0,M,,*4A
$GPGGA,204724.000,5213.8588,N,00000.9021,W,1,05,02.4,2078.6,M,45.0,M,,*42
$GPGGA,204725.000,5213.8559,N,00000.8942,W,1,05,02.4,2083.0,M,45.0,M,,*40
$GPGGA,204726.000,5213.8531,N,00000.8863,W,1,05,02.4,2087.3,M,45.0,M,,*48
$GPGGA,204727.000,5213.8502,N,00000.8785,W,1,05,02.4,2091.7,M,45.0,M,,*4D
$GPGGA,204728.000,5213.8474,N,00000.8706,W,1,05,02.4,2096.0,M,45.0,M,,*49
$GPGGA,204729.000,5213.8450,N,00000.8619,W,1,05,02.4,2100.3,M,45.0,M,,*4C
$GPGGA,204730.000,5213.8427,N,00000.8532,W,1,05,02.4,2104.6,M,45.0,M,,*4F
$GPGGA,204731.000,5213.8403,N,00000.8444,W,1,05,02.4,2108.9,M,45.0,M,,*4B
$GPGGA,204732.000,5213.8379,N,00000.8357,W,1,05,02.4,2113.2,M,45.0,M,,*46
$GPGGA,204733.000,5213.8356,N,00000.8270,W,1,05,02.4,2117.5,M,45.0,M,,*4D
$GPGGA,204734.000,5213.8332,N,00000.8183,W,1,05,02.4,2121.8,M,45.0,M,,*4F
$GPGGA,204735.000,5213.8309,N,00000.8095,W,1,05,02.4,2126.2,M,45.0,M,,*4D
$GPGGA,204736.000,5213.8285,N,00000.8008,W,1,05,02.4,2130.5,M,45.0,M,,*4F
$GPGGA,204737.000,5213.8262,N,00000.7921,W,1,05,02.4,2134.8,M,45.0,M,,*43
$GPGGA,204738.000,5213.8238,N,00000.7834,W,1,05,02.4,2139.1,M,45.0,M,,*42
$GPGGA,204739.000,5213.8215,N,00000.7746,W,1,05,02.4,2143.4,M,45.0,M,,*4E
$GPGGA,204740.000,5213.8191,N,00000.7659,W,1,05,02.4,2147.7,M,45.0,M,,*47
$GPGGA,204741.000,5213.8168,N,00000.7572,W,1,05,02.4,2152.0,M,45.0,M,,*49
$GPGGA,204742.000,5213.8144,N,00000.7485,W,1,05,02.4,2156.3,M,45.0,M,,*4A
$GPGGA,204743.000,5213.8121,N,00000.7398,W,1,05,02.4,2160.6,M,45.0,M,,*43
$GPGGA,204744.000,5213.8097,N,00000.7310,W,1,05,02.4,2164.9,M,45.0,M,,*43
$GPGGA,204745.000,5213.8074,N,00000.7223,W,1,05,02.4,2169.2,M,45.0,M,,*48
$GPGGA,204746.000,5213.8050,N,00000.7136,W,1,05,02.4,2173.5,M,45.0,M,,*46
$GPGGA,204747.000,5213.8027,N,00000.7049,W,1,05,02.4,2177.8,M,45.0,M,,*47
$GPGGA,204748.000,5213.8003,N,00000.6961,W,1,05,02.4,2182.2,M,45.0,M,,*4C
$GPGGA,204749.000,5213.7980,N,00000.6874,W,1,05,02.4,2186.5,M,45.0,M,,*46
$GPGGA,204750.000,5213.7956,N,00000.6787,W,1,05,02.4,2190.8,M,45.0,M,,*4C
$GPGGA,204751.000,5213.7933,N,00000.6700,W,1,05,02.4,2195.1,M,45.0,M,,*4D
$GPGGA,204752.000,5213.7909,N,00000.6612,W,1,05,02.4,2199.4,M,45.0,M,,*4C
$GPGGA,204753.000,5213.7886,N,00000.6525,W,1,05,02.4,2203.7,M,45.0,M,,*4F
$GPGGA,204754.000,5213.7862,N,00000.6438,W,1,05,02.4,2208.0,M,45.0,M,,*43
$GPGGA,204755.000,5213.7832,N,00000.6349,W,1,05,02.4,2212.3,M,45.0,M,,*4E
$GPGGA,204756.000,5213.7801,N,00000.6261,W,1,05,02.4,2216.5,M,45.0,M,,*44
$GPGGA,204757.000,5213.7771,N,00000.6172,W,1,05,02.4,2220.8,M,45.0,M,,*44
$GPGGA,204758.000,5213.7740,N,00000.6083,W,1,05,02.4,2225.1,M,45.0,M,,*4A
$GPGGA,204759.000,5213.7709,N,00000.5995,W,1,05,02.4,2229.4,M,45.0,M,,*42
$GPGGA,204800.000,5213.7679,N,00000.5906,W,1,05,02.4,2233.6,M,45.0,M,,*44
$GPGGA,204801.000,5213.7648,N,00000.5818,W,1,05,02.4,2237.9,M,45.0,M,,*42
$GPGGA,204802.000,5213.7618,N,00000.5729,W,1,05,02.4,2242.2,M,45.0,M,,*40
$GPGGA,204803.000,5213.7587,N,00000.5640,W,1,05,02.4,2246.5,M,45.0,M,,*49
$GPGGA,204804.000,5213.7557,N,00000.5552,W,1,05,02.4,2250.7,M,45.0,M,,*46
$GPGGA,204805.000,5213.7526,N,00000.5463,W,1,05,02.4,2255.0,M,45.0,M,,*40
$GPGGA,204806.000,5213.7495,N,00000.5374,W,1,05,02.4,2259.3,M,45.0,M,,*44
$GPGGA,204807.000,5213.7465,N,00000.5286,W,1,05,02.4,2263.5,M,45.0,M,,*49
$GPGGA,204808.000,5213.7434,N,00000.5197,W,1,05,02.4,2267.8,M,45.0,M,,*48
$GPGGA,204809.000,5213.7404,N,00000.5108,W,1,05,02.4,2272.1,M,45.0,M,,*41
$GPGGA,204810.000,5213.7373,N,00000.5020,W,1,05,02.4,2276.4,M,45.0,M,,*44
$GPGGA,204811.000,5213.7342,N,00000.4931,W,1,05,02.4,2280.6,M,45.0,M,,*44
$GPGGA,204812.000,5213.7312,N,00000.4843,W,1,05,02.4,2284.9,M,45.0,M,,*4D
$GPGGA,204813.000,5213.7281,N,00000.4754,W,1,05,02.4,2289.2,M,45.0,M,,*48
$GPGGA,204814.000,5213.7251,N,00000.4665,W,1,05,02.4,2293.5,M,45.0,M,,*4D
$GPGGA,204815.000,5213.7220,N,00000.4577,W,1,05,02.4,2297.7,M,45.0,M,,*4C
$GPGGA,204816.000,5213.7189,N,00000.4488,W,1,05,02.4,2302.0,M,45.0,M,,*44
$GPGGA,204817.000,5213.7165,N,00000.4414,W,1,05,02.4,2306.2,M,45.0,M,,*44
$GPGGA,204818.000,5213.7141,N,00000.4340,W,1,05,02.4,2310.5,M,45.0,M,,*4B
$GPGGA,204819.000,5213.7117,N,00000.4266,W,1,05,02.4,2314.8,M,45.0,M,,*45
$GPGGA,204820.000,5213.7093,N,00000.4192,W,1,05,02.4,2319.0,M,45.0,M,,*4F
$GPGGA,204821.000,5213.7069,N,00000.4118,W,1,05,02.4,2323.2,M,45.0,M,,*42
$GPGGA,204822.000,5213.7044,N,00000.4044,W,1,05,02.4,2327.5,M,45.0,M,,*45
$GPGGA,204823.000,5213.7020,N,00000.3971,W,1,05,02.4,2331.8,M,45.0,M,,*44
$GPGGA,204824.000,5213.6996,N,00000.3897,W,1,05,02.4,2336.0,M,45.0,M,,*40
$GPGGA,204825.000,5213.6972,N,00000.3823,W,1,05,02.4,2340.2,M,45.0,M,,*47
$GPGGA,204826.000,5213.6948,N,00000.3749,W,1,05,02.4,2344.5,M,45.0,M,,*4D
$GPGGA,204827.000,5213.6923,N,00000.3675,W,1,05,02.4,2348.8,M,45.0,M,,*4E
$GPGGA,204828.000,5213.6899,N,00000.3601,W,1,05,02.4,2353.0,M,45.0,M,,*40
$GPGGA,204829.000,5213.6875,N,00000.3527,W,1,05,02.4,2357.2,M,45.0,M,,*42
$GPGGA,204830.000,5213.6851,N,00000.3453,W,1,05,02.4,2361.5,M,45.0,M,,*4C
$GPGGA,204831.000,5213.6827,N,00000.3379,W,1,05,02.4,2365.8,M,45.0,M,,*4A
$GPGGA,204832.000,5213.6802,N,00000.3305,W,1,05,02.4,2370.0,M,45.0,M,,*49
$GPGGA,204833.000,5213.6778,N,00000.3231,W,1,05,02.4,2374.2,M,45.0,M,,*4A
$GPGGA,204834.000,5213.6754,N,00000.3157,W,1,05,02.4,2378.5,M,45.0,M,,*4B
$GPGGA,204835.000,5213.6730,N,00000.3083,W,1,05,02.4,2382.8,M,45.0,M,,*48
$GPGGA,204836.000,5213.6706,N,00000.3009,W,1,05,02.4,2387.0,M,45.0,M,,*41
$GPGGA,204837.000,5213.6681,N,00000.2936,W,1,05,02.4,2391.2,M,45.0,M,,*4F
$GPGGA,204838.000,5213.6657,N,00000.2862,W,1,05,02.4,2395.5,M,45.0,M,,*48
$GPGGA,204839.000,5213.6633,N,00000.2788,W,1,05,02.4,2399.8,M,45.0,M,,*41
$GPGGA,204840.000,5213.6609,N,00000.2714,W,1,05,02.4,2404.0,M,45.0,M,,*48
$GPGGA,204841.000,5213.6585,N,00000.2640,W,1,05,02.4,2408.2,M,45.0,M,,*40
$GPGGA,204842.000,5213.6560,N,00000.2566,W,1,05,02.4,2412.5,M,45.0,M,,*43
$GPGGA,204843.000,5213.6536,N,00000.2492,W,1,05,02.4,2416.8,M,45.0,M,,*42
$GPGGA,204844.000,5213.6512,N,00000.2418,W,1,05,02.4,2421.0,M,45.0,M,,*4D
$GPGGA,204845.000,5213.6479,N,00000.2352,W,1,05,02.4,2425.3,M,45.0,M,,*4E
$GPGGA,204846.000,5213.6447,N,00000.2287,W,1,05,02.4,2429.6,M,45.0,M,,*40
$GPGGA,204847.000,5213.6414,N,00000.2221,W,1,05,02.4,2433.9,M,45.0,M,,*4F
$GPGGA,204848.000,5213.6382,N,00000.2156,W,1,05,02.4,2438.2,M,45.0,M,,*4B
$GPGGA,204849.000,5213.6349,N,00000.2090,W,1,05,02.4,2442.6,M,45.0,M,,*4F
$GPGGA,204850.000,5213.6317,N,00000.2024,W,1,05,02.4,2446.9,M,45.0,M,,*48
$GPGGA,204851.000,5213.6284,N,00000.1959,W,1,05,02.4,2451.2,M,45.0,M,,*4F
$GPGGA,204852.000,5213.6252,N,00000.1893,W,1,05,02.4,2455.5,M,45.0,M,,*43
$GPGGA,204853.000,5213.6219,N,00000.1828,W,1,05,02.4,2459.8,M,45.0,M,,*4C
$GPGGA,204854.000,5213.6187,N,00000.1762,W,1,05,02.4,2464.1,M,45.0,M,,*49
$GPGGA,204855.000,5213.6154,N,00000.1697,W,1,05,02.4,2468.4,M,45.0,M,,*44
$GPGGA,204856.000,5213.6122,N,00000.1631,W,1,05,02.4,2472.7,M,45.0,M,,*42
$GPGGA,204857.000,5213.6089,N,00000.1565,W,1,05,02.4,2477.0,M,45.0,M,,*43
$GPGGA,204858.000,5213.6057,N,00000.1500,W,1,05,02.4,2481.3,M,45.0,M,,*46
$GPGGA,204859.000,5213.6024,N,00000.1434,W,1,05,02.4,2485.7,M,45.0,M,,*45
$GPGGA,204900.000,5213.5992,N,00000.1369,W,1,05,02.4,2490.0,M,45.0,M,,*43
$GPGGA,204901.000,5213.5959,N,00000.1303,W,1,05,02.4,2494.3,M,45.0,M,,*4E
$GPGGA,204902.000,5213.5927,N,00000.1237,W,1,05,02.4,2498.6,M,45.0,M,,*4B
$GPGGA,204903.000,5213.5894,N,00000.1172,W,1,05,02.4,2502.9,M,45.0,M,,*4C
$GPGGA,204904.000,5213.5862,N,00000.1106,W,1,05,02.4,2507.2,M,45.0,M,,*4F
$GPGGA,204905.000,5213.5829,N,00000.1041,W,1,05,02.4,2511.5,M,45.0,M,,*43
$GPGGA,204906.000,5213.5797,N,00000.0975,W,1,05,02.4,2515.8,M,45.0,M,,*4C
$GPGGA,204907.000,5213.5764,N,00000.0910,W,1,05,02.4,2520.1,M,45.0,M,,*4D
$GPGGA,204908.000,5213.5732,N,00000.0844,W,1,05,02.4,2524.4,M,45.0,M,,*40
$GPGGA,204909.000,5213.5699,N,00000.0778,W,1,05,02.4,2528.8,M,45.0,M,,*41
$GPGGA,204910.000,5213.5667,N,00000.0713,W,1,05,02.4,2533.1,M,45.0,M,,*46
$GPGGA,204911.000,5213.5634,N,00000.0647,W,1,05,02.4,2537.4,M,45.0,M,,*40
$GPGGA,204912.000,5213.5602,N,00000.0582,W,1,05,02.4,2541.7,M,45.0,M,,*4E
$GPGGA,204913.000,5213.5569,N,00000.0516,W,1,05,02.4,2546.0,M,45.0,M,,*4C
$GPGGA,204914.000,5213.5536,N,00000.0446,W,1,05,02.4,2550.3,M,45.0,M,,*41
$GPGGA,204915.000,5213.5503,N,00000.0376,W,1,05,02.4,2554.5,M,45.0,M,,*40
$GPGGA,204916.000,5213.5469,N,00000.0306,W,1,05,02.4,2558.8,M,45.0,M,,*48
$GPGGA,204917.000,5213.5436,N,00000.0237,W,1,05,02.4,2563.0,M,45.0,M,,*40
$GPGGA,204918.000,5213.5403,N,00000.0167,W,1,05,02.4,2567.3,M,45.0,M,,*48
$GPGGA,204919.000,5213.5370,N,00000.0097,W,1,05,02.4,2571.5,M,45.0,M,,*45
$GPGGA,204920.000,5213.5336,N,00000.0027,W,1,05,02.4,2575.8,M,45.0,M,,*4F
$GPGGA,204921.000,5213.5303,N,00000.0043,E,1,05,02.4,2580.1,M,45.0,M,,*5B
$GPGGA,204922.000,5213.5270,N,00000.0113,E,1,05,02.4,2584.3,M,45.0,M,,*5F
$GPGGA,204923.000,5213.5237,N,00000.0183,E,1,05,02.4,2588.6,M,45.0,M,,*5D
$GPGGA,204924.000,5213.5204,N,00000.0253,E,1,05,02.4,2592.8,M,45.0,M,,*51
$GPGGA,204925.000,5213.5170,N,00000.0322,E,1,05,02.4,2597.1,M,45.0,M,,*5B
$GPGGA,204926.000,5213.5137,N,00000.0392,E,1,05,02.4,2601.4,M,45.0,M,,*59
$GPGGA,204927.000,5213.5104,N,00000.0462,E,1,05,02.4,2605.6,M,45.0,M,,*56
$GPGGA,204928.000,5213.5071,N,00000.0532,E,1,05,02.4,2609.9,M,45.0,M,,*5D
$GPGGA,204929.000,5213.5037,N,00000.0602,E,1,05,02.4,2614.1,M,45.0,M,,*5A
$GPGGA,204930.000,5213.5004,N,00000.0672,E,1,05,02.4,2618.4,M,45.0,M,,*5C
$GPGGA,204931.000,5213.4971,N,00000.0742,E,1,05,02.4,2622.6,M,45.0,M,,*5E
$GPGGA,204932.000,5213.4938,N,00000.0812,E,1,05,02.4,2626.9,M,45.0,M,,*51
$GPGGA,204933.000,5213.4905,N,00000.0881,E,1,05,02.4,2631.2,M,45.0,M,,*59
$GPGGA,204934.000,5213.4871,N,00000.0951,E,1,05,02.4,2635.4,M,45.0,M,,*52
$GPGGA,204935.000,5213.4838,N,00000.1021,E,1,05,02.4,2639.7,M,45.0,M,,*5E
$GPGGA,204936.000,5213.4805,N,00000.1091,E,1,05,02.4,2643.9,M,45.0,M,,*5B
$GPGGA,204937.000,5213.4772,N,00000.1161,E,1,05,02.4,2648.2,M,45.0,M,,*5B
$GPGGA,204938.000,5213.4738,N,00000.1231,E,1,05,02.4,2652.5,M,45.0,M,,*50
$GPGGA,204939.000,5213.4705,N,00000.1301,E,1,05,02.4,2656.7,M,45.0,M,,*5B
$GPGGA,204940.000,5213.4672,N,00000.1371,E,1,05,02.4,2661.0,M,45.0,M,,*50
$GPGGA,204941.000,5213.4639,N,00000.1440,E,1,05,02.4,2665.2,M,45.0,M,,*5D
$GPGGA,204942.000,5213.4605,N,00000.1510,E,1,05,02.4,2669.5,M,45.0,M,,*5E
$GPGGA,204943.000,5213.4572,N,00000.1580,E,1,05,02.4,2673.7,M,45.0,M,,*5C
$GPGGA,204944.000,5213.4539,N,00000.1650,E,1,05,02.4,2678.0,M,45.0,M,,*56
$GPGGA,204945.000,5213.4487,N,00000.1742,E,1,05,02.4,2682.4,M,45.0,M,,*50
$GPGGA,204946.000,5213.4436,N,00000.1833,E,1,05,02.4,2686.7,M,45.0,M,,*57
$GPGGA,204947.000,5213.4384,N,00000.1925,E,1,05,02.4,2691.1,M,45.0,M,,*5E
$GPGGA,204948.000,5213.4333,N,00000.2017,E,1,05,02.4,2695.5,M,45.0,M,,*56
$GPGGA,204949.000,5213.4281,N,00000.2108,E,1,05,02.4,2699.8,M,45.0,M,,*51
$GPGGA,204950.000,5213.4229,N,00000.2200,E,1,05,02.4,2704.2,M,45.0,M,,*5F
$GPGGA,204951.000,5213.4178,N,00000.2291,E,1,05,02.4,2708.5,M,45.0,M,,*5A
$GPGGA,204952.000,5213.4126,N,00000.2383,E,1,05,02.4,2712.9,M,45.0,M,,*57
$GPGGA,204953.000,5213.4075,N,00000.2475,E,1,05,02.4,2717.3,M,45.0,M,,*50
$GPGGA,204954.000,5213.4023,N,00000.2566,E,1,05,02.4,2721.6,M,45.0,M,,*57
$GPGGA,204955.000,5213.3971,N,00000.2658,E,1,05,02.4,2726.0,M,45.0,M,,*50
$GPGGA,204956.000,5213.3920,N,00000.2750,E,1,05,02.4,2730.4,M,45.0,M,,*5D
$GPGGA,204957.000,5213.3868,N,00000.2841,E,1,05,02.4,2734.7,M,45.0,M,,*59
$GPGGA,204958.000,5213.3817,N,00000.2933,E,1,05,02.4,2739.1,M,45.0,M,,*51
$GPGGA,204959.000,5213.3765,N,00000.3025,E,1,05,02.4,2743.5,M,45.0,M,,*5C
$GPGGA,205000.000,5213.3713,N,00000.3116,E,1,05,02.4,2747.8,M,45.0,M,,*51
$GPGGA,205001.000,5213.3662,N,00000.3208,E,1,05,02.4,2752.2,M,45.0,M,,*55
$GPGGA,205002.000,5213.3610,N,00000.3299,E,1,05,02.4,2756.5,M,45.0,M,,*58
$GPGGA,205003.000,5213.3559,N,00000.3391,E,1,05,02.4,2760.9,M,45.0,M,,*57
$GPGGA,205004.000,5213.3507,N,00000.3483,E,1,05,02.4,2765.3,M,45.0,M,,*50
$GPGGA,205005.000,5213.3455,N,00000.3574,E,1,05,02.4,2769.6,M,45.0,M,,*57
$GPGGA,205006.000,5213.3404,N,00000.3666,E,1,05,02.4,2774.0,M,45.0,M,,*5A
$GPGGA,205007.000,5213.3356,N,00000.3765,E,1,05,02.4,2778.2,M,45.0,M,,*57
$GPGGA,205008.000,5213.3308,N,00000.3865,E,1,05,02.4,2782.4,M,45.0,M,,*5F
$GPGGA,205009.000,5213.3260,N,00000.3964,E,1,05,02.4,2786.7,M,45.0,M,,*56
$GPGGA,205010.000,5213.3212,N,00000.4064,E,1,05,02.4,2790.9,M,45.0,M,,*5C
$GPGGA,205011.000,5213.3164,N,00000.4163,E,1,05,02.4,2795.1,M,45.0,M,,*54
$GPGGA,205012.000,5213.3116,N,00000.4262,E,1,05,02.4,2799.3,M,45.0,M,,*5E
$GPGGA,205013.000,5213.3068,N,00000.4362,E,1,05,02.4,2803.5,M,45.0,M,,*5C
$GPGGA,205014.000,5213.3020,N,00000.4461,E,1,05,02.4,2807.7,M,45.0,M,,*55
$GPGGA,205015.000,5213.2972,N,00000.4561,E,1,05,02.4,2812.0,M,45.0,M,,*59
$GPGGA,205016.000,5213.2924,N,00000.4660,E,1,05,02.4,2816.2,M,45.0,M,,*5D
$GPGGA,205017.000,5213.2876,N,00000.4759,E,1,05,02.4,2820.4,M,45.0,M,,*52
$GPGGA,205018.000,5213.2828,N,00000.4859,E,1,05,02.4,2824.6,M,45.0,M,,*5F
$GPGGA,205019.000,5213.2780,N,00000.4958,E,1,05,02.4,2828.8,M,45.0,M,,*51
$GPGGA,205020.000,5213.2732,N,00000.5057,E,1,05,02.4,2833.0,M,45.0,M,,*57
$GPGGA,205021.000,5213.2684,N,00000.5157,E,1,05,02.4,2837.3,M,45.0,M,,*5C
$GPGGA,205022.000,5213.2636,N,00000.5256,E,1,05,02.4,2841.5,M,45.0,M,,*53
$GPGGA,205023.000,5213.2588,N,00000.5356,E,1,05,02.4,2845.7,M,45.0,M,,*53
$GPGGA,205024.000,5213.2540,N,00000.5455,E,1,05,02.4,2849.9,M,45.0,M,,*56
$GPGGA,205025.000,5213.2492,N,00000.5554,E,1,05,02.4,2854.1,M,45.0,M,,*5D
$GPGGA,205026.000,5213.2444,N,00000.5654,E,1,05,02.4,2858.3,M,45.0,M,,*58
$GPGGA,205027.000,5213.2396,N,00000.5753,E,1,05,02.4,2862.6,M,45.0,M,,*5B
$GPGGA,205028.000,5213.2349,N,00000.5853,E,1,05,02.4,2866.8,M,45.0,M,,*53
$GPGGA,205029.000,5213.2301,N,00000.5952,E,1,05,02.4,2871.0,M,45.0,M,,*50
$GPGGA,205030.000,5213.2247,N,00000.6061,E,1,05,02.4,2875.3,M,45.0,M,,*56
$GPGGA,205031.000,5213.2194,N,00000.6169,E,1,05,02.4,2879.7,M,45.0,M,,*5B
$GPGGA,205032.000,5213.2141,N,00000.6278,E,1,05,02.4,2884.0,M,45.0,M,,*56
$GPGGA,205033.000,5213.2088,N,00000.6386,E,1,05,02.4,2888.4,M,45.0,M,,*5B
$GPGGA,205034.000,5213.2035,N,00000.6495,E,1,05,02.4,2892.7,M,45.0,M,,*57
$GPGGA,205035.000,5213.1982,N,00000.6604,E,1,05,02.4,2897.1,M,45.0,M,,*59
$GPGGA,205036.000,5213.1929,N,00000.6712,E,1,05,02.4,2901.4,M,45.0,M,,*56
$GPGGA,205037.000,5213.1876,N,00000.6821,E,1,05,02.4,2905.8,M,45.0,M,,*5B
$GPGGA,205038.000,5213.1823,N,00000.6929,E,1,05,02.4,2910.1,M,45.0,M,,*50
$GPGGA,205039.000,5213.1770,N,00000.7038,E,1,05,02.4,2914.5,M,45.0,M,,*50
$GPGGA,205040.000,5213.1716,N,00000.7147,E,1,05,02.4,2918.8,M,45.0,M,,*56
$GPGGA,205041.000,5213.1663,N,00000.7255,E,1,05,02.4,2923.2,M,45.0,M,,*56
$GPGGA,205042.000,5213.1610,N,00000.7364,E,1,05,02.4,2927.5,M,45.0,M,,*51
$GPGGA,205043.000,5213.1557,N,00000.7472,E,1,05,02.4,2931.9,M,45.0,M,,*5B
$GPGGA,205044.000,5213.1504,N,00000.7581,E,1,05,02.4,2936.2,M,45.0,M,,*5B
$GPGGA,205045.000,5213.1451,N,00000.7690,E,1,05,02.4,2940.6,M,45.0,M,,*5D
$GPGGA,205046.000,5213.1398,N,00000.7798,E,1,05,02.4,2944.9,M,45.0,M,,*5E
$GPGGA,205047.000,5213.1345,N,00000.7907,E,1,05,02.4,2949.3,M,45.0,M,,*50
$GPGGA,205048.000,5213.1292,N,00000.8015,E,1,05,02.4,2953.6,M,45.0,M,,*5F
$GPGGA,205049.000,5213.1239,N,00000.8124,E,1,05,02.4,2958.0,M,45.0,M,,*51
$GPGGA,205050.000,5213.1191,N,00000.8234,E,1,05,02.4,2962.2,M,45.0,M,,*51
$GPGGA,205051.000,5213.1144,N,00000.8344,E,1,05,02.4,2966.4,M,45.0,M,,*5C
$GPGGA,205052.000,5213.1096,N,00000.8454,E,1,05,02.4,2970.6,M,45.0,M,,*52
$GPGGA,205053.000,5213.1049,N,00000.8564,E,1,05,02.4,2974.8,M,45.0,M,,*59
$GPGGA,205054.000,5213.1001,N,00000.8674,E,1,05,02.4,2979.0,M,45.0,M,,*55
$GPGGA,205055.000,5213.0954,N,00000.8784,E,1,05,02.4,2983.1,M,45.0,M,,*56
$GPGGA,205056.000,5213.0907,N,00000.8894,E,1,05,02.4,2987.3,M,45.0,M,,*5B
$GPGGA,205057.000,5213.0859,N,00000.9004,E,1,05,02.4,2991.5,M,45.0,M,,*51
$GPGGA,205058.000,5213.0812,N,00000.9114,E,1,05,02.4,2995.7,M,45.0,M,,*57
$GPGGA,205059.000,5213.0764,N,00000.9224,E,1,05,02.4,2999.9,M,45.0,M,,*5A
$GPGGA,205100.000,5213.0717,N,00000.9334,E,1,05,02.4,3004.1,M,45.0,M,,*57
$GPGGA,205101.000,5213.0670,N,00000.9444,E,1,05,02.4,3008.3,M,45.0,M,,*58
$GPGGA,205102.000,5213.0622,N,00000.9554,E,1,05,02.4,3012.5,M,45.0,M,,*51
$GPGGA,205103.000,5213.0575,N,00000.9664,E,1,05,02.4,3016.7,M,45.0,M,,*57
$GPGGA,205104.000,5213.0527,N,00000.9774,E,1,05,02.4,3020.9,M,45.0,M,,*5C
$GPGGA,205105.000,5213.0480,N,00000.9884,E,1,05,02.4,3025.0,M,45.0,M,,*5D
$GPGGA,205106.000,5213.0433,N,00000.9994,E,1,05,02.4,3029.2,M,45.0,M,,*58
$GPGGA,205107.000,5213.0385,N,00001.0104,E,1,05,02.4,3033.4,M,45.0,M,,*57
$GPGGA,205108.000,5213.0338,N,00001.0214,E,1,05,02.4,3037.6,M,45.0,M,,*5A
$GPGGA,205109.000,5213.0290,N,00001.0324,E,1,05,02.4,3041.8,M,45.0,M,,*55
$GPGGA,205110.000,5213.0243,N,00001.0434,E,1,05,02.4,3046.0,M,45.0,M,,*5A
$GPGGA,205111.000,5213.0204,N,00001.0539,E,1,05,02.4,3050.3,M,45.0,M,,*50
$GPGGA,205112.000,5213.0165,N,00001.0643,E,1,05,02.4,3054.5,M,45.0,M,,*5B
$GPGGA,205113.000,5213.0126,N,00001.0748,E,1,05,02.4,3058.8,M,45.0,M,,*56
$GPGGA,205114.000,5213.0087,N,00001.0853,E,1,05,02.4,3063.1,M,45.0,M,,*5F
$GPGGA,205115.000,5213.0048,N,00001.0958,E,1,05,02.4,3067.4,M,45.0,M,,*56
$GPGGA,205116.000,5213.0009,N,00001.1062,E,1,05,02.4,3071.6,M,45.0,M,,*54
$GPGGA,205117.000,5212.9970,N,00001.1167,E,1,05,02.4,3075.9,M,45.0,M,,*55
$GPGGA,205118.000,5212.9931,N,00001.1272,E,1,05,02.4,3080.2,M,45.0,M,,*59
$GPGGA,205119.000,5212.9892,N,00001.1377,E,1,05,02.4,3084.5,M,45.0,M,,*57
$GPGGA,205120.000,5212.9853,N,00001.1481,E,1,05,02.4,3088.7,M,45.0,M,,*50
$GPGGA,205121.000,5212.9814,N,00001.1586,E,1,05,02.4,3093.0,M,45.0,M,,*59
$GPGGA,205122.000,5212.9775,N,00001.1691,E,1,05,02.4,3097.3,M,45.0,M,,*50
$GPGGA,205123.000,5212.9736,N,00001.1795,E,1,05,02.4,3101.5,M,45.0,M,,*5B
$GPGGA,205124.000,5212.9697,N,00001.1900,E,1,05,02.4,3105.8,M,45.0,M,,*5D
$GPGGA,205125.000,5212.9658,N,00001.2005,E,1,05,02.4,3110.1,M,45.0,M,,*5D
$GPGGA,205126.000,5212.9619,N,00001.2110,E,1,05,02.4,3114.4,M,45.0,M,,*5F
$GPGGA,205127.000,5212.9580,N,00001.2214,E,1,05,02.4,3118.6,M,45.0,M,,*54
$GPGGA,205128.000,5212.9541,N,00001.2319,E,1,05,02.4,3122.9,M,45.0,M,,*5C
$GPGGA,205129.000,5212.9502,N,00001.2424,E,1,05,02.4,3127.2,M,45.0,M,,*5D
$GPGGA,205130.000,5212.9463,N,00001.2529,E,1,05,02.4,3131.5,M,45.0,M,,*5F
$GPGGA,205131.000,5212.9424,N,00001.2633,E,1,05,02.4,3135.7,M,45.0,M,,*53
$GPGGA,205132.000,5212.9385,N,00001.2738,E,1,05,02.4,3140.0,M,45.0,M,,*53
$GPGGA,205133.000,5212.9340,N,00001.2828,E,1,05,02.4,3144.2,M,45.0,M,,*53
$GPGGA,205134.000,5212.9295,N,00001.2919,E,1,05,02.4,3148.4,M,45.0,M,,*54
$GPGGA,205135.000,5212.9251,N,00001.3009,E,1,05,02.4,3152.6,M,45.0,M,,*5D
$GPGGA,205136.000,5212.9206,N,00001.3100,E,1,05,02.4,3156.8,M,45.0,M,,*5E
$GPGGA,205137.000,5212.9161,N,00001.3190,E,1,05,02.4,3161.0,M,45.0,M,,*58
$GPGGA,205138.000,5212.9117,N,00001.3281,E,1,05,02.4,3165.2,M,45.0,M,,*53
$GPGGA,205139.000,5212.9072,N,00001.3371,E,1,05,02.4,3169.4,M,45.0,M,,*54
$GPGGA,205140.000,5212.9027,N,00001.3462,E,1,05,02.4,3173.6,M,45.0,M,,*56
$GPGGA,205141.000,5212.8983,N,00001.3552,E,1,05,02.4,3177.8,M,45.0,M,,*59
$GPGGA,205142.000,5212.8938,N,00001.3643,E,1,05,02.4,3182.0,M,45.0,M,,*5B
$GPGGA,205143.000,5212.8893,N,00001.3733,E,1,05,02.4,3186.2,M,45.0,M,,*5A
$GPGGA,205144.000,5212.8848,N,00001.3824,E,1,05,02.4,3190.4,M,45.0,M,,*53
$GPGGA,205145.000,5212.8804,N,00001.3914,E,1,05,02.4,3194.6,M,45.0,M,,*5E
$GPGGA,205146.000,5212.8759,N,00001.4005,E,1,05,02.4,3198.8,M,45.0,M,,*56
$GPGGA,205147.000,5212.8714,N,00001.4095,E,1,05,02.4,3203.0,M,45.0,M,,*5E
$GPGGA,205148.000,5212.8670,N,00001.4186,E,1,05,02.4,3207.2,M,45.0,M,,*57
$GPGGA,205149.000,5212.8625,N,00001.4276,E,1,05,02.4,3211.4,M,45.0,M,,*5B
$GPGGA,205150.000,5212.8580,N,00001.4367,E,1,05,02.4,3215.6,M,45.0,M,,*58
$GPGGA,205151.000,5212.8536,N,00001.4457,E,1,05,02.4,3219.8,M,45.0,M,,*52
$GPGGA,205152.000,5212.8491,N,00001.4548,E,1,05,02.4,3224.0,M,45.0,M,,*54
$GPGGA,205153.000,5212.8446,N,00001.4638,E,1,05,02.4,3228.2,M,45.0,M,,*55
$GPGGA,205154.000,5212.8402,N,00001.4729,E,1,05,02.4,3232.4,M,45.0,M,,*5E
$GPGGA,205155.000,5212.8357,N,00001.4819,E,1,05,02.4,3236.6,M,45.0,M,,*52
$GPGGA,205156.000,5212.8312,N,00001.4910,E,1,05,02.4,3240.8,M,45.0,M,,*57
$GPGGA,205157.000,5212.8268,N,00001.5000,E,1,05,02.4,3245.0,M,45.0,M,,*5E
$GPGGA,205158.000,5212.8234,N,00001.5081,E,1,05,02.4,3249.3,M,45.0,M,,*5E
$GPGGA,205159.000,5212.8200,N,00001.5162,E,1,05,02.4,3253.7,M,45.0,M,,*5B
$GPGGA,205200.000,5212.8166,N,00001.5242,E,1,05,02.4,3258.0,M,45.0,M,,*5A
$GPGGA,205201.000,5212.8133,N,00001.5323,E,1,05,02.4,3262.3,M,45.0,M,,*57
$GPGGA,205202.000,5212.8099,N,00001.5404,E,1,05,02.4,3266.7,M,45.0,M,,*57
$GPGGA,205203.000,5212.8065,N,00001.5485,E,1,05,02.4,3271.0,M,45.0,M,,*5D
$GPGGA,205204.000,5212.8031,N,00001.5565,E,1,05,02.4,3275.3,M,45.0,M,,*53
$GPGGA,205205.000,5212.7998,N,00001.5646,E,1,05,02.4,3279.7,M,45.0,M,,*5D
$GPGGA,205206.000,5212.7964,N,00001.5727,E,1,05,02.4,3284.0,M,45.0,M,,*5E
$GPGGA,205207.000,5212.7930,N,00001.5808,E,1,05,02.4,3288.3,M,45.0,M,,*53
$GPGGA,205208.000,5212.7896,N,00001.5888,E,1,05,02.4,3292.7,M,45.0,M,,*56
$GPGGA,205209.000,5212.7863,N,00001.5969,E,1,05,02.4,3297.0,M,45.0,M,,*51
$GPGGA,205210.000,5212.7829,N,00001.6050,E,1,05,02.4,3301.3,M,45.0,M,,*5A
$GPGGA,205211.000,5212.7795,N,00001.6131,E,1,05,02.4,3305.7,M,45.0,M,,*55
$GPGGA,205212.000,5212.7761,N,00001.6211,E,1,05,02.4,3310.0,M,45.0,M,,*5F
$GPGGA,205213.000,5212.7728,N,00001.6292,E,1,05,02.4,3314.3,M,45.0,M,,*5F
$GPGGA,205214.000,5212.7694,N,00001.6373,E,1,05,02.4,3318.7,M,45.0,M,,*58
$GPGGA,205215.000,5212.7660,N,00001.6454,E,1,05,02.4,3323.0,M,45.0,M,,*5F
$GPGGA,205216.000,5212.7626,N,00001.6534,E,1,05,02.4,3327.3,M,45.0,M,,*5E
$GPGGA,205217.000,5212.7592,N,00001.6615,E,1,05,02.4,3331.7,M,45.0,M,,*50
$GPGGA,205218.000,5212.7559,N,00001.6696,E,1,05,02.4,3336.0,M,45.0,M,,*53
$GPGGA,205219.000,5212.7525,N,00001.6777,E,1,05,02.4,3340.3,M,45.0,M,,*55
$GPGGA,205220.000,5212.7491,N,00001.6857,E,1,05,02.4,3344.7,M,45.0,M,,*5C
$GPGGA,205221.000,5212.7457,N,00001.6938,E,1,05,02.4,3349.0,M,45.0,M,,*55
$GPGGA,205222.000,5212.7420,N,00001.7024,E,1,05,02.4,3353.2,M,45.0,M,,*5A
$GPGGA,205223.000,5212.7383,N,00001.7110,E,1,05,02.4,3357.5,M,45.0,M,,*50
$GPGGA,205224.000,5212.7346,N,00001.7196,E,1,05,02.4,3361.8,M,45.0,M,,*58
$GPGGA,205225.000,5212.7309,N,00001.7282,E,1,05,02.4,3366.0,M,45.0,M,,*5B
$GPGGA,205226.000,5212.7272,N,00001.7368,E,1,05,02.4,3370.2,M,45.0,M,,*55
$GPGGA,205227.000,5212.7235,N,00001.7454,E,1,05,02.4,3374.5,M,45.0,M,,*5C
$GPGGA,205228.000,5212.7198,N,00001.7540,E,1,05,02.4,3378.8,M,45.0,M,,*52
$GPGGA,205229.000,5212.7161,N,00001.7625,E,1,05,02.4,3383.0,M,45.0,M,,*59
$GPGGA,205230.000,5212.7124,N,00001.7711,E,1,05,02.4,3387.2,M,45.0,M,,*50
$GPGGA,205231.000,5212.7087,N,00001.7797,E,1,05,02.4,3391.5,M,45.0,M,,*57
$GPGGA,205232.000,5212.7050,N,00001.7883,E,1,05,02.4,3395.8,M,45.0,M,,*5D
$GPGGA,205233.000,5212.7013,N,00001.7969,E,1,05,02.4,3400.0,M,45.0,M,,*5D
$GPGGA,205234.000,5212.6976,N,00001.8055,E,1,05,02.4,3404.2,M,45.0,M,,*5E
$GPGGA,205235.000,5212.6939,N,00001.8141,E,1,05,02.4,3408.5,M,45.0,M,,*5B
$GPGGA,205236.000,5212.6902,N,00001.8227,E,1,05,02.4,3412.8,M,45.0,M,,*55
$GPGGA,205237.000,5212.6865,N,00001.8313,E,1,05,02.4,3417.0,M,45.0,M,,*5F
$GPGGA,205238.000,5212.6828,N,00001.8399,E,1,05,02.4,3421.2,M,45.0,M,,*5C
$GPGGA,205239.000,5212.6791,N,00001.8485,E,1,05,02.4,3425.5,M,45.0,M,,*59
$GPGGA,205240.000,5212.6754,N,00001.8571,E,1,05,02.4,3429.8,M,45.0,M,,*55
$GPGGA,205241.000,5212.6717,N,00001.8657,E,1,05,02.4,3434.0,M,45.0,M,,*50
$GPGGA,205242.000,5212.6680,N,00001.8742,E,1,05,02.4,3438.2,M,45.0,M,,*57
$GPGGA,205243.000,5212.6643,N,00001.8828,E,1,05,02.4,3442.5,M,45.0,M,,*50
$GPGGA,205244.000,5212.6606,N,00001.8914,E,1,05,02.4,3446.8,M,45.0,M,,*51
$GPGGA,205245.000,5212.6569,N,00001.9000,E,1,05,02.4,3451.0,M,45.0,M,,*59
$GPGGA,205246.000,5212.6532,N,00001.9086,E,1,05,02.4,3455.2,M,45.0,M,,*5C
$GPGGA,205247.000,5212.6495,N,00001.9172,E,1,05,02.4,3459.5,M,45.0,M,,*50
$GPGGA,205248.000,5212.6458,N,00001.9258,E,1,05,02.4,3463.8,M,45.0,M,,*51
$GPGGA,205249.000,5212.6421,N,00001.9344,E,1,05,02.4,3468.0,M,45.0,M,,*51
$GPGGA,205250.000,5212.6382,N,00001.9425,E,1,05,02.4,3472.2,M,45.0,M,,*5E
$GPGGA,205251.000,5212.6344,N,00001.9506,E,1,05,02.4,3476.4,M,45.0,M,,*57
$GPGGA,205252.000,5212.6306,N,00001.9587,E,1,05,02.4,3480.7,M,45.0,M,,*51
$GPGGA,205253.000,5212.6268,N,00001.9668,E,1,05,02.4,3484.9,M,45.0,M,,*51
